Restaurant ID,Restaurant Name,Country Code,City,Address,Locality,Locality Verbose,Longitude,Latitude,Cuisines,Average Cost for two,Currency,Has Table booking,Has Online delivery,Is delivering now,Switch to order menu,Price range,Aggregate rating,Rating color,Rating text,Votes
6317637,Le Petit Souffle,162,Makati City,"Third Floor, Century City Mall, Kalayaan Avenue, Poblacion, Makati City","Century City Mall, Poblacion, Makati City","Century City Mall, Poblacion, Makati City, Makati City",121.027535,14.565443,"French, Japanese, Desserts",1100,Botswana Pula(P),Yes,No,No,No,3,4.8,Dark Green,Excellent,314
6304287,Izakaya Kikufuji,162,Makati City,"Little Tokyo, 2277 Chino Roces Avenue, Legaspi Village, Makati City","Little Tokyo, Legaspi Village, Makati City","Little Tokyo, Legaspi Village, Makati City, Makati City",121.014101,14.553708,Japanese,1200,Botswana Pula(P),Yes,No,No,No,3,4.5,Dark Green,Excellent,591
6300002,Heat - Edsa Shangri-La,162,Mandaluyong City,"Edsa Shangri-La, 1 Garden Way, Ortigas, Mandaluyong City","Edsa Shangri-La, Ortigas, Mandaluyong City","Edsa Shangri-La, Ortigas, Mandaluyong City, Mandaluyong City",121.056831,14.581404,"Seafood, Asian, Filipino, Indian",4000,Botswana Pula(P),Yes,No,No,No,4,4.4,Green,Very Good,270
6318506,Ooma,162,Mandaluyong City,"Third Floor, Mega Fashion Hall, SM Megamall, Ortigas, Mandaluyong City","SM Megamall, Ortigas, Mandaluyong City","SM Megamall, Ortigas, Mandaluyong City, Mandaluyong City",121.056475,14.585318,"Japanese, Sushi",1500,Botswana Pula(P),No,No,No,No,4,4.9,Dark Green,Excellent,365
6314302,Sambo Kojin,162,Mandaluyong City,"Third Floor, Mega Atrium, SM Megamall, Ortigas, Mandaluyong City","SM Megamall, Ortigas, Mandaluyong City","SM Megamall, Ortigas, Mandaluyong City, Mandaluyong City",121.057508,14.58445,"Japanese, Korean",1500,Botswana Pula(P),Yes,No,No,No,4,4.8,Dark Green,Excellent,229
18189371,Din Tai Fung,162,Mandaluyong City,"Ground Floor, Mega Fashion Hall, SM Megamall, Ortigas, Mandaluyong City","SM Megamall, Ortigas, Mandaluyong City","SM Megamall, Ortigas, Mandaluyong City, Mandaluyong City",121.056314,14.583764,Chinese,1000,Botswana Pula(P),No,No,No,No,3,4.4,Green,Very Good,336
6300781,Buffet 101,162,Pasay City,"Building K, SM By The Bay, Sunset Boulevard, Mall of Asia Complex (MOA), Pasay City","SM by the Bay, Mall of Asia Complex, Pasay City","SM by the Bay, Mall of Asia Complex, Pasay City, Pasay City",120.9796667,14.53133333,"Asian, European",2000,Botswana Pula(P),Yes,No,No,No,4,4,Green,Very Good,520
6301290,Vikings,162,Pasay City,"Building B, By The Bay, Seaside Boulevard, Mall of Asia Complex (MOA), Pasay City","SM by the Bay, Mall of Asia Complex, Pasay City","SM by the Bay, Mall of Asia Complex, Pasay City, Pasay City",120.9793333,14.54,"Seafood, Filipino, Asian, European",2000,Botswana Pula(P),Yes,No,No,No,4,4.2,Green,Very Good,677
6300010,Spiral - Sofitel Philippine Plaza Manila,162,Pasay City,"Plaza Level, Sofitel Philippine Plaza Manila, CCP Complex, Pasay City","Sofitel Philippine Plaza Manila, Pasay City","Sofitel Philippine Plaza Manila, Pasay City, Pasay City",120.98009,14.55299,"European, Asian, Indian",6000,Botswana Pula(P),Yes,No,No,No,4,4.9,Dark Green,Excellent,621
6314987,Locavore,162,Pasig City,"Brixton Technology Center, 10 Brixton Street, Kapitolyo, Pasig City",Kapitolyo,"Kapitolyo, Pasig City",121.056532,14.572041,Filipino,1100,Botswana Pula(P),Yes,No,No,No,3,4.8,Dark Green,Excellent,532
6309903,Silantro Fil-Mex,162,Pasig City,"75 East Capitol Drive, Kapitolyo, Pasig City",Kapitolyo,"Kapitolyo, Pasig City",121.057916,14.567689,"Filipino, Mexican",800,Botswana Pula(P),No,No,No,No,3,4.9,Dark Green,Excellent,1070
6309455,Mad Mark's Creamery & Good Eats,162,Pasig City,"23 East Capitol Drive, Kapitolyo, Pasig City",Kapitolyo,"Kapitolyo, Pasig City",121.06082,14.570849,"American, Ice Cream, Desserts",900,Botswana Pula(P),Yes,No,No,No,3,4.2,Green,Very Good,488
6318433,Silantro Fil-Mex,162,Quezon City,"Second Floor, UP Town Center, Katipunan Avenue, Diliman, Quezon City","UP Town Center, Diliman, Quezon City","UP Town Center, Diliman, Quezon City, Quezon City",121.075419,14.649503,"Filipino, Mexican",800,Botswana Pula(P),No,No,No,No,3,4.8,Dark Green,Excellent,294
6310470,Guevarra's,162,San Juan City,"387 P. Guevarra Corner Argonne Street, Addition Hills, San Juan City",Addition Hills,"Addition Hills, San Juan City",121.0335917,14.59345,Filipino,1000,Botswana Pula(P),Yes,No,No,No,3,4.2,Green,Very Good,458
6314605,Sodam Korean Restaurant,162,San Juan City,"17 J. Abad Santos Drive, Little Baguio, San Juan City",Little Baguio,"Little Baguio, San Juan City",121.03811,14.59889,Korean,700,Botswana Pula(P),No,No,No,No,3,4.3,Green,Very Good,223
18185059,Cafe Arabelle,162,Santa Rosa,"Ayala Mall, Solenad, Nuvali, Santa Rosa - Tagaytay Road, Don Jose, Santa Rosa","Nuvali, Don Jose, Santa Rosa","Nuvali, Don Jose, Santa Rosa, Santa Rosa",121.05704,14.237082,"Cafe, American, Italian, Filipino",800,Botswana Pula(P),No,No,No,No,3,3.6,Yellow,Good,29
18182702,Nonna's Pasta & Pizzeria,162,Santa Rosa,"Ground Floor, Building G, Solenad 3, Nuvali, Don Jose, Santa Rosa","Solenad 3, Don Jose, Santa Rosa","Solenad 3, Don Jose, Santa Rosa, Santa Rosa",121.0565874,14.23767897,"Italian, Pizza",850,Botswana Pula(P),No,No,No,No,3,4,Green,Very Good,72
6318213,Balay Dako,162,Tagaytay City,"Aguinaldo Highway, Tagaytay City",Tagaytay City,"Tagaytay City, Tagaytay City",120.951589,14.101834,Filipino,1200,Botswana Pula(P),Yes,No,No,No,3,4.5,Dark Green,Excellent,211
18255654,Hobing Korean Dessert Cafe,162,Taguig City,"Third Floor, BGC Stopover Pavillion, Rizal Drive Corner 31st Street, Bonifacio Global City, Taguig City","BGC Stopover Pavillion, Bonifacio Global City","BGC Stopover Pavillion, Bonifacio Global City, Taguig City",121.045878,14.55436,"Cafe, Korean, Desserts",600,Botswana Pula(P),No,No,No,No,2,4.5,Dark Green,Excellent,118
6308205,Wildflour Cafe + Bakery,162,Taguig City,"Ground Floor, Netlima Building, 4th Avenue Corner 26th Street, Bonifacio Global City, Taguig City",Bonifacio Global City,"Bonifacio Global City, Taguig City",121.04622,14.549337,"Cafe, Bakery, American, Italian",1500,Botswana Pula(P),Yes,No,No,No,4,4.4,Green,Very Good,392
6315438,NIU by Vikings,162,Taguig City,"Sixth Floor, SM Aura Premier, C5 Road Corner 26th Street, Bonifacio Global City, Taguig City","SM Aura Premier, Bonifacio Global City, Taguig City","SM Aura Premier, Bonifacio Global City, Taguig City, Taguig City",121.053725,14.545858,"Seafood, American, Mediterranean, Japanese",3000,Botswana Pula(P),Yes,No,No,No,4,4.7,Dark Green,Excellent,535
6310406,The Food Hall by Todd English,162,Taguig City,"Fifth Floor, SM Aura Premier, C5 Corner 26th Street, Bonifacio Global City, Taguig City","SM Aura Premier, Bonifacio Global City, Taguig City","SM Aura Premier, Bonifacio Global City, Taguig City, Taguig City",121.0534998,14.54565535,"American, Asian, Italian, Seafood",1800,Botswana Pula(P),Yes,No,No,No,4,4.5,Dark Green,Excellent,618
6600681,Chez Michou,30,BrasÌ_lia,"SCLN, 208, Bloco A, Loja 30, Asa Norte, BrasÌ_lia",Asa Norte,"Asa Norte, BrasÌ_lia",-47.88178889,-15.76414167,"Fast Food, French",55,Brazilian Real(R$),No,No,No,No,2,3,Orange,Average,6
6601005,CafÌ© Daniel Briand,30,BrasÌ_lia,"SCLN 104, Bloco A, Loja 26, Asa Norte, BrasÌ_lia",Asa Norte,"Asa Norte, BrasÌ_lia",-47.88266667,-15.7775,Cafe,30,Brazilian Real(R$),No,No,No,No,1,3.8,Yellow,Good,9
6600292,Casa do Biscoito Mineiro,30,BrasÌ_lia,"SCLN 210, Bloco D, Loja 36/48, Asa Norte, BrasÌ_lia",Asa Norte,"Asa Norte, BrasÌ_lia",-47.88213611,-15.75747222,Bakery,45,Brazilian Real(R$),No,No,No,No,2,3.7,Yellow,Good,11
6600441,Maori,30,BrasÌ_lia,"CLN 110, Bloco D, Loja 28, Asa Norte, BrasÌ_lia",Asa Norte,"Asa Norte, BrasÌ_lia",-47.88816667,-15.75883333,Brazilian,60,Brazilian Real(R$),No,No,No,No,3,3.8,Yellow,Good,11
6600970,Pizza ÌÊ Bessa,30,BrasÌ_lia,"SCS 214, Bloco C, Loja 40, Asa Sul, BrasÌ_lia",Asa Sul,"Asa Sul, BrasÌ_lia",-47.91566667,-15.83116667,Pizza,50,Brazilian Real(R$),No,No,No,No,2,3.2,Orange,Average,11
6600379,Sushi Loko,30,BrasÌ_lia,"SCS 213, Bloco C, Loja 35, Asa Sul, BrasÌ_lia",Asa Sul,"Asa Sul, BrasÌ_lia",-47.91566667,-15.831,Japanese,80,Brazilian Real(R$),No,No,No,No,3,3.1,Orange,Average,10
6600214,Beirute,30,BrasÌ_lia,"CLS 109, Bloco A, Loja 2/6, Asa Sul, BrasÌ_lia",Asa Sul,"Asa Sul, BrasÌ_lia",-47.9075,-15.82,Arabian,90,Brazilian Real(R$),No,No,No,No,3,3.7,Yellow,Good,8
6601218,New Koto,30,BrasÌ_lia,"SCS 212, Bloco B, Loja 26, Asa Sul, BrasÌ_lia",Asa Sul,"Asa Sul, BrasÌ_lia",-47.91016667,-15.82733333,Japanese,200,Brazilian Real(R$),No,No,No,No,4,3.7,Yellow,Good,5
6600060,Sandubas CafÌ©,30,BrasÌ_lia,"EdifÌ_cio JosÌ© Severo, SCS 6, Bloco A, Loja 99, Asa Sul, BrasÌ_lia",Asa Sul,"Asa Sul, BrasÌ_lia",-47.89016667,-15.797,"Brazilian, Cafe",30,Brazilian Real(R$),No,No,No,No,1,0,White,Not rated,2
6600083,Villa Tevere,30,BrasÌ_lia,"CLS 115, Bloco A, Loja 2, Asa Sul, BrasÌ_lia",Asa Sul,"Asa Sul, BrasÌ_lia",-47.92366667,-15.83133333,Italian,150,Brazilian Real(R$),No,No,No,No,4,4.1,Green,Very Good,12
6601515,Rovereto,30,BrasÌ_lia,"Rua 13 Norte, Lote 4, ÌÅguas Claras, BrasÌ_lia",ÌÅguas Claras,"ÌÅguas Claras, BrasÌ_lia",-48.019,-15.83716667,Pizza,100,Brazilian Real(R$),No,No,No,No,4,3.1,Orange,Average,9
6601361,Buena Carne,30,BrasÌ_lia,"Avenida AraucÌÁrias, 1325, Loja 19, ÌÅguas Claras, BrasÌ_lia",ÌÅguas Claras,"ÌÅguas Claras, BrasÌ_lia",-48.01909167,-15.839775,"Bar Food, Brazilian",60,Brazilian Real(R$),No,No,No,No,3,3.6,Yellow,Good,9
6601602,Taco Pep,30,BrasÌ_lia,"Vila Malls, Avenida das Castanheiras, Lote 1060, ÌÄguas Claras, BrasÌ_lia",ÌÅguas Claras,"ÌÅguas Claras, BrasÌ_lia",-48.01666667,-15.83483333,"Mexican, Grill",100,Brazilian Real(R$),No,No,No,No,4,4.3,Green,Very Good,29
6601589,Coco Bambu,30,BrasÌ_lia,"BrasÌ_lia Shopping - Piso 2, SCN 5, Bloco A, Asa Norte, BrasÌ_lia","BrasÌ_lia Shopping, Asa Norte","BrasÌ_lia Shopping, Asa Norte, BrasÌ_lia",-47.889,-15.7865,International,230,Brazilian Real(R$),No,No,No,No,4,4.2,Green,Very Good,17
6601862,TaypÌÁ,30,BrasÌ_lia,"Fashion Park, Shis Ql 17, Bloco G, Loja 208, Lago Sul, BrasÌ_lia",Lago Sul,"Lago Sul, BrasÌ_lia",-47.872359,-15.860621,"Peruvian, Latin American",100,Brazilian Real(R$),No,No,No,No,4,3.6,Yellow,Good,5
6601595,Outback Steakhouse,30,BrasÌ_lia,"ParkShopping - Piso 2, SAI/SO, ÌÅrea 6580, GuarÌÁ I, BrasÌ_lia","ParkShopping, GuarÌÁ I","ParkShopping, GuarÌÁ I, BrasÌ_lia",-47.95628333,-15.83451389,"American, Grill",150,Brazilian Real(R$),No,No,No,No,4,4,Green,Very Good,10
6601158,ManzuÌÁ,30,BrasÌ_lia,"PontÌ£o Lago Sul, SHIS 10, Lote 9, Lago Sul, BrasÌ_lia","PontÌ£o Lago Sul, Lago Sul","PontÌ£o Lago Sul, Lago Sul, BrasÌ_lia",-47.87283333,-15.82566667,Seafood,240,Brazilian Real(R$),No,No,No,No,4,3.2,Orange,Average,6
6600427,Coco Bambu,30,BrasÌ_lia,"SCES, Trecho 2, Conjunto 13/36, Setor de Clubes Esportivos Sul, BrasÌ_lia",Setor De Clubes Esportivos Sul,"Setor De Clubes Esportivos Sul, BrasÌ_lia",-47.8685,-15.819,International,230,Brazilian Real(R$),No,No,No,No,4,4.9,Dark Green,Excellent,30
6600116,Gero,30,BrasÌ_lia,"Shopping Iguatemi - piso 1, SHIN CA 4, Lote A, Lago Norte, BrasÌ_lia","Shopping Iguatemi, Lago Norte","Shopping Iguatemi, Lago Norte, BrasÌ_lia",-47.885812,-15.720118,Italian,350,Brazilian Real(R$),No,No,No,No,4,3.3,Orange,Average,8
6601457,Brazilian American Burgers,30,BrasÌ_lia,"CLSN 301, Bloco C, Loja 86, Sudoeste, BrasÌ_lia",Sudoeste,"Sudoeste, BrasÌ_lia",-47.92102778,-15.79753056,"American, Burger",50,Brazilian Real(R$),No,No,No,No,2,3.6,Yellow,Good,9
7303219,Pesqueiro Eco Gourmet,30,Rio de Janeiro,"Praia da Barra da Tijuca, Avenida LÌ_cio Costa, Ilha 25, Barra da Tijuca, Rio de Janeiro",Barra da Tijuca,"Barra da Tijuca, Rio de Janeiro",-43.377,-23.0115,"Seafood, Bar Food, Brazilian",140,Brazilian Real(R$),No,No,No,No,4,4,Green,Very Good,7
7304307,Confeitaria Colombo,30,Rio de Janeiro,"Rua GonÌ_alves Dias, 32, Centro, Rio de Janeiro",Centro,"Centro, Rio de Janeiro",-43.178826,-22.905293,"Desserts, Cafe",100,Brazilian Real(R$),No,No,No,No,4,4.8,Dark Green,Excellent,29
7301215,Bibi,30,Rio de Janeiro,"Rua Santa Clara, 36, Copabana, Rio de Janeiro",Copacabana,"Copacabana, Rio de Janeiro",-43.18669167,-22.97207222,"Juices, Healthy Food",60,Brazilian Real(R$),No,No,No,No,3,4.7,Dark Green,Excellent,24
7300596,Cervantes,30,Rio de Janeiro,"Avenida Prado Junior, 335 B, Copacabana, Rio de Janeiro",Copacabana,"Copacabana, Rio de Janeiro",-43.17583333,-22.96216667,"Beverages, Bar Food, Fast Food",90,Brazilian Real(R$),No,No,No,No,3,4.5,Dark Green,Excellent,29
7300612,Amir,30,Rio de Janeiro,"Rua Ronald de Carvalho, 55, Copacabana, Rio de Janeiro",Copacabana,"Copacabana, Rio de Janeiro",-43.176,-22.96516667,Lebanese,170,Brazilian Real(R$),No,No,No,No,4,4.2,Green,Very Good,11
7300704,TT Burger,30,Rio de Janeiro,"Galeria River, Rua Francisco Otaviano, 67, Copacabana, Rio de Janeiro","Galeria River, Copacabana","Galeria River, Copacabana, Rio de Janeiro",-43.191,-22.98683333,Burger,60,Brazilian Real(R$),No,No,No,No,3,4.8,Dark Green,Excellent,19
7300955,Braseiro da GÌÁvea,30,Rio de Janeiro,"PraÌ_a Santos Dumont, 116, GÌÁvea, Rio de Janeiro",GÌÁvea,"GÌÁvea, Rio de Janeiro",-43.227042,-22.973507,"Brazilian, Bar Food",100,Brazilian Real(R$),No,No,No,No,4,4.9,Dark Green,Excellent,40
7300521,Balada Mix,30,Rio de Janeiro,"Rua AnÌ_bal de MendonÌ_a, 37, Ipanema, Rio de Janeiro",Ipanema,"Ipanema, Rio de Janeiro",-43.211425,-22.98520833,"Brazilian, Healthy Food, Juices, Pizza",90,Brazilian Real(R$),No,No,No,No,3,4.6,Dark Green,Excellent,21
7300515,Garota de Ipanema,30,Rio de Janeiro,"Rua Vinicius de Moraes, 49, Ipanema, Rio de Janeiro",Ipanema,"Ipanema, Rio de Janeiro",-43.203,-22.98533333,"Brazilian, Bar Food",120,Brazilian Real(R$),No,No,No,No,4,4.9,Dark Green,Excellent,49
7300483,ZazÌÁ BistrÌ« Tropical,30,Rio de Janeiro,"Rua Joana AngÌ©lica, 40, Ipanema, Rio de Janeiro",Ipanema,"Ipanema, Rio de Janeiro",-43.20520833,-22.98531944,Brazilian,170,Brazilian Real(R$),No,No,No,No,4,4.6,Dark Green,Excellent,21
7301064,FilÌ© de Ouro,30,Rio de Janeiro,"Rua Jardim BotÌ¢nico, 731, Jardim BotÌ¢nico, Lagoa, Rio de Janeiro",Lagoa,"Lagoa, Rio de Janeiro",-43.219563,-22.966647,Brazilian,90,Brazilian Real(R$),No,No,No,No,3,4.3,Green,Very Good,14
7304312,D.O.C Ristorante,30,Rio de Janeiro,"Le Monde, Bloco 3, Lojas A/B, Avenida das AmÌ©ricas, 3500, Barra da Tijuca, Rio de Janeiro","Le Monde, Barra da Tijuca","Le Monde, Barra da Tijuca, Rio de Janeiro",-43.34879167,-22.99991111,Italian,150,Brazilian Real(R$),No,No,No,No,4,4,Green,Very Good,5
7300004,Sushi Leblon,30,Rio de Janeiro,"Rua Dias Ferreira, 256, Leblon, Rio de Janeiro",Leblon,"Leblon, Rio de Janeiro",-43.227,-22.98416667,Japanese,250,Brazilian Real(R$),No,No,No,No,4,4.6,Dark Green,Excellent,25
7300868,Talho Capixaba,30,Rio de Janeiro,"Avenida Ataulfo de Paiva, 1022, Lojas A e B, Leblon, Rio de Janeiro",Leblon,"Leblon, Rio de Janeiro",-43.22566667,-22.98516667,"Bakery, Sandwich, Brazilian",120,Brazilian Real(R$),No,No,No,No,4,4.4,Green,Very Good,13
7302637,Leme Light,30,Rio de Janeiro,"Rua Gustavo Sampaio, 798, Leme, Rio de Janeiro",Leme,"Leme, Rio de Janeiro",-43.17279167,-22.963925,Brazilian,40,Brazilian Real(R$),No,No,No,No,2,4.2,Green,Very Good,7
7302140,Shirley,30,Rio de Janeiro,"Rua Gustavo Sampaio, 610, Leme, Rio de Janeiro",Leme,"Leme, Rio de Janeiro",-43.17126389,-22.96337222,"Brazilian, Seafood",250,Brazilian Real(R$),No,No,No,No,4,4.2,Green,Very Good,8
7305048,Quiosque Chopp Brahma,30,Rio de Janeiro,"Madureira Shopping - Loja 289/290, Piso 2, Estrada do Portela, 222, Madureira, Rio de Janeiro, RJ",Madureira,"Madureira, Rio de Janeiro",-43.341164,-22.870413,"Bar Food, Brazilian",70,Brazilian Real(R$),No,No,No,No,3,0,White,Not rated,1
7302898,AprazÌ_vel,30,Rio de Janeiro,"Rua AprazÌ_vel, 62, Santa Teresa, Rio de Janeiro",Santa Teresa,"Santa Teresa, Rio de Janeiro",-43.18736944,-22.92481389,Brazilian,300,Brazilian Real(R$),No,No,No,No,4,4.7,Dark Green,Excellent,44
7302859,Aconchego Carioca,30,Rio de Janeiro,"Rua BarÌ£o de Iguatemi, 379, Tijuca, Rio de Janeiro",Tijuca,"Tijuca, Rio de Janeiro",-43.21551111,-22.91370833,"Brazilian, Bar Food",85,Brazilian Real(R$),No,No,No,No,3,4.6,Dark Green,Excellent,24
7301700,Garota de Ipanema,30,Rio de Janeiro,"Avenida JoÌ£o Alves, 56, Urca, Rio de Janeiro",Urca,"Urca, Rio de Janeiro",-43.16266667,-22.94783333,"Brazilian, Bar Food",80,Brazilian Real(R$),No,No,No,No,3,4.3,Green,Very Good,10
6706313,Cantina Famiglia Mancini,30,SÌ£o Paulo,"Rua Avanhandava, 81, Bela Vista, SÌ£o Paulo 10000","Bela Vista, Centro","Bela Vista, Centro, SÌ£o Paulo",-46.64516667,-23.55066667,"Italian, Pizza",250,Brazilian Real(R$),No,No,No,No,4,4.5,Dark Green,Excellent,49
6704326,Templo da Carne - Marcos Bassi,30,SÌ£o Paulo,"Rua Treze de Maio, 668, Bela Vista, SÌ£o Paulo 01327000","Bela Vista, Centro","Bela Vista, Centro, SÌ£o Paulo",-46.64633333,-23.559,"Steak, BBQ",250,Brazilian Real(R$),No,No,No,No,4,4.4,Green,Very Good,17
6711179,Gopala Hari,30,SÌ£o Paulo,"Rua Antonio Carlos, 429, ConsolaÌ_Ì£o, SÌ£o Paulo",ConsolaÌ_Ì£o,"ConsolaÌ_Ì£o, SÌ£o Paulo",-46.65866667,-23.55616667,Indian,70,Brazilian Real(R$),No,No,No,No,3,3.1,Orange,Average,5
6702797,Jiquitaia,30,SÌ£o Paulo,"Rua AntÌ«nio Carlos, 268, ConsolaÌ_Ì£o, SÌ£o Paulo",ConsolaÌ_Ì£o,"ConsolaÌ_Ì£o, SÌ£o Paulo",-46.657523,-23.55671,Brazilian,100,Brazilian Real(R$),No,No,No,No,4,4.1,Green,Very Good,15
6700475,Skye - Hotel Unique,30,SÌ£o Paulo,"Hotel Unique, Avenida Brigadeiro LuÌ_s AntÌ«nio, 4700, Jardim Paulista, SÌ£o Paulo","Hotel Unique, Jardim Paulista","Hotel Unique, Jardim Paulista, SÌ£o Paulo",-46.666851,-23.581688,"Beverages, International",300,Brazilian Real(R$),No,No,No,No,4,4.8,Dark Green,Excellent,59
6713413,Les 3 Brasseurs,30,SÌ£o Paulo,"Rua JesuÌ_no Arruda, 470, Itaim Bibi, SÌ£o Paulo",Itaim Bibi,"Itaim Bibi, SÌ£o Paulo",-46.67511,-23.582135,"French, Brazilian, Beverages",120,Brazilian Real(R$),No,No,No,No,4,4.6,Dark Green,Excellent,30
6714340,Red Steak & Burger,30,SÌ£o Paulo,"Rua TabapuÌ£, 1417, Itaim Bibi, SÌ£o Paulo",Itaim Bibi,"Itaim Bibi, SÌ£o Paulo",-46.683888,-23.585324,"Brazilian, Grill",75,Brazilian Real(R$),No,No,No,No,3,3.9,Yellow,Good,5
6710645,Cantinho da Gula,30,SÌ£o Paulo,"Rua Pedroso Alvarenga, 522, Itaim Bibi, SÌ£o Paulo, SP",Itaim Bibi,"Itaim Bibi, SÌ£o Paulo",-46.67566667,-23.581,Brazilian,55,Brazilian Real(R$),No,No,No,No,2,0,White,Not rated,0
6700402,Paris 6 Classique,30,SÌ£o Paulo,"Rua Haddock Lobo, 1240, Cerqueira CÌ©sar, Jardim Paulista, SÌ£o Paulo",Jardim Paulista,"Jardim Paulista, SÌ£o Paulo",-46.666041,-23.561568,French,200,Brazilian Real(R$),No,No,No,No,4,3.4,Orange,Average,73
6700846,Kawa Sushi,30,SÌ£o Paulo,"Alameda Lorena, 300, Jardim Paulista, SÌ£o Paulo",Jardim Paulista,"Jardim Paulista, SÌ£o Paulo",-46.657418,-23.571638,"Sushi, Japanese",120,Brazilian Real(R$),No,No,No,No,4,3.5,Yellow,Good,9
6702159,A Figueira Rubaiyat,30,SÌ£o Paulo,"Rua Haddock Lobo, 1738, Cerqueira CÌ©sar, Jardim Paulista, SÌ£o Paulo 10000",Jardim Paulista,"Jardim Paulista, SÌ£o Paulo",-46.66983333,-23.5655,"BBQ, Grill, Brazilian",300,Brazilian Real(R$),No,No,No,No,4,4.3,Green,Very Good,39
6711666,Kinoshita,30,SÌ£o Paulo,"Rua Jacques FÌ©lix, 405, Vila Nova ConceiÌ_Ì£o, Moema, SÌ£o Paulo",Moema,"Moema, SÌ£o Paulo",-46.67133333,-23.59233333,Sushi,230,Brazilian Real(R$),No,No,No,No,4,3.9,Yellow,Good,12
6701257,Meats,30,SÌ£o Paulo,"Rua dos Pinheiros, 320, Pinheiros, SÌ£o Paulo",Pinheiros,"Pinheiros, SÌ£o Paulo",-46.68133333,-23.56483333,"Gourmet Fast Food, Burger",120,Brazilian Real(R$),No,No,No,No,4,4.3,Green,Very Good,68
6706211,Paribar,30,SÌ£o Paulo,"PraÌ_a Dom JosÌ© Gaspar, 42, RepÌ_blica, SÌ£o Paulo 10000",RepÌ_blica,"RepÌ_blica, SÌ£o Paulo",-46.64159444,-23.54664167,"Brazilian, Italian",150,Brazilian Real(R$),No,No,No,No,4,4.3,Green,Very Good,46
6705858,TerraÌ_o ItÌÁlia,30,SÌ£o Paulo,"EdifÌ_cio ItÌÁlia - 41å¡ Andar, Avenida Ipiranga, 344, RepÌ_blica, SÌ£o Paulo",RepÌ_blica,"RepÌ_blica, SÌ£o Paulo",-46.643425,-23.545163,Italian,400,Brazilian Real(R$),No,No,No,No,4,4.4,Green,Very Good,37
6701419,Divino FogÌ£o,30,SÌ£o Paulo,"Shopping MetrÌ« Santa Cruz - Piso L2, Rua Domingos de Morais, 2564, Vila Mariana, SÌ£o Paulo","Shopping MetrÌ« Santa Cruz, Vila Mariana","Shopping MetrÌ« Santa Cruz, Vila Mariana, SÌ£o Paulo",-46.63716667,-23.5995,"Brazilian, Mineira",65,Brazilian Real(R$),No,No,No,No,3,0,White,Not rated,2
6703956,Super Grill,30,SÌ£o Paulo,"Shopping Morumbi - Piso Lazer, Avenida Roque Petroni JÌ_nior, 1089, Santo Amaro, SÌ£o Paulo","Shopping Morumbi, Santo Amaro","Shopping Morumbi, Santo Amaro, SÌ£o Paulo",-46.698574,-23.622925,Brazilian,50,Brazilian Real(R$),No,No,No,No,2,0,White,Not rated,2
6709580,Esquina MocotÌ_,30,SÌ£o Paulo,"Avenida Nossa Senhora do Loreto, 1104, Vila Medeiros, Vila Maria, SÌ£o Paulo",Vila Maria,"Vila Maria, SÌ£o Paulo",-46.581672,-23.486535,"Brazilian, North Eastern",100,Brazilian Real(R$),No,No,No,No,4,4.4,Green,Very Good,22
6703176,Veloso,30,SÌ£o Paulo,"Rua ConceiÌ_Ì£o Veloso, 56, Vila Mariana, SÌ£o Paulo",Vila Mariana,"Vila Mariana, SÌ£o Paulo",-46.63566667,-23.58516667,"Brazilian, Bar Food, Beverages",70,Brazilian Real(R$),No,No,No,No,3,4.6,Dark Green,Excellent,58
6713772,Sainte Marie Gastronomia,30,SÌ£o Paulo,"Rua Dom JoÌ£o Batista da Costa, 70, Vila SÌ«nia, SÌ£o Paulo",Vila SÌ«nia,"Vila SÌ«nia, SÌ£o Paulo",-46.746958,-23.609207,"Lebanese, Arabian",120,Brazilian Real(R$),No,No,No,No,4,4.1,Green,Very Good,11
17284404,Austin's BBQ and Oyster Bar,216,Albany,"2820 Meredyth Dr, Albany, GA 31707",Albany,"Albany, Albany",-84.221535,31.610387,"BBQ, Burger, Seafood",25,Dollar($),No,No,No,No,2,3.3,Orange,Average,35
17284203,BJ's Country Buffet,216,Albany,"2401 Dawson Rd, Albany, GA 31707",Albany,"Albany, Albany",-84.207095,31.608743,"American, BBQ",10,Dollar($),No,No,No,No,1,3.3,Orange,Average,25
17284105,Cookie Shoppe,216,Albany,"115 N Jackson St, Albany, GA 31701",Albany,"Albany, Albany",-84.154,31.5772,,0,Dollar($),No,No,No,No,1,3.4,Orange,Average,34
17284302,El Vaquero Mexican Restaurant,216,Albany,"2700 Dawson Rd, Albany, GA 31707",Albany,"Albany, Albany",-84.2194,31.6158,Mexican,0,Dollar($),No,No,No,No,1,3.4,Orange,Average,45
17284397,Elements Coffee Co - Northwest,216,Albany,"2726 Ledo Rd Ste 10, Albany, GA 31707",Albany,"Albany, Albany",-84.206944,31.622412,"Coffee and Tea, Sandwich",10,Dollar($),No,No,No,No,1,3.4,Orange,Average,26
17284211,Pearly's Famous Country Cookng,216,Albany,"814 N Slappey Blvd, Albany, GA 31701",Albany,"Albany, Albany",-84.1759,31.5882,,0,Dollar($),No,No,No,No,1,3.4,Orange,Average,36
17284094,Chick-fil-A,216,Albany,"2703 Dawson Rd, Albany, GA 31707",Albany,"Albany, Albany",-84.2193,31.616,Fast Food,10,Dollar($),No,No,No,No,1,3.5,Yellow,Good,67
17284409,Guang Zhou Chinese Restaurant,216,Albany,"1214 N Westover Blvd, Albany, GA 31707",Albany,"Albany, Albany",-84.2091458,31.6155186,"Asian, Chinese, Vegetarian",10,Dollar($),No,No,No,No,1,3.9,Yellow,Good,141
17284139,Harvest Moon,216,Albany,"2347 Dawson Road, Albany, GA 31707",Albany,"Albany, Albany",-84.205718,31.604905,"Pizza, Bar Food, Sandwich",25,Dollar($),No,No,No,No,2,3.7,Yellow,Good,147
17284403,Henry Campbell's Steakhouse,216,Albany,"629 N. Westover Blvd, Albany, GA 31707",Albany,"Albany, Albany",-84.223278,31.612121,"Steak, Tapas, Bar Food",70,Dollar($),No,No,No,No,4,3.5,Yellow,Good,51
17284145,Hong Kong Cafe,216,Albany,"2700 Dawson Rd, Albany, GA 31707",Albany,"Albany, Albany",-84.2191,31.6156,"Chinese, Seafood, Vegetarian",25,Dollar($),No,No,No,No,2,3.6,Yellow,Good,88
17284150,House of China Restaurant II,216,Albany,"2526 Dawson Rd Ste A, Albany, GA 31707",Albany,"Albany, Albany",-84.212,31.6104,Chinese,10,Dollar($),No,No,No,No,1,3.8,Yellow,Good,153
17284158,Jimmie's Hot Dogs,216,Albany,"204 S Jackson St, Albany, GA 31701",Albany,"Albany, Albany",-84.1534,31.5751,,10,Dollar($),No,No,No,No,1,3.9,Yellow,Good,160
17284175,Locos Grill & Pub,216,Albany,"547 N Westover Blvd, Albany, GA 31707",Albany,"Albany, Albany",-84.2228,31.6077,"American, Burger, Sandwich",25,Dollar($),No,No,No,No,2,3.5,Yellow,Good,57
17284179,Longhorn Steakhouse,216,Albany,"2733 Dawson Rd, Albany, GA 31707",Albany,"Albany, Albany",-84.2229,31.6185,"American, Steak",25,Dollar($),No,No,No,No,2,3.5,Yellow,Good,58
17284197,Mikata Japanese Steakhouse,216,Albany,"2610 Dawson Rd, Albany, GA 31707",Albany,"Albany, Albany",-84.2164,31.6137,"Japanese, Steak, Sushi",40,Dollar($),No,No,No,No,3,3.6,Yellow,Good,115
17284241,Shogun Japanese Steak House,216,Albany,"629 N Westover Blvd, Albany, GA 31707",Albany,"Albany, Albany",-84.2233,31.6118,"Japanese, Steak, Sushi",40,Dollar($),No,No,No,No,3,3.5,Yellow,Good,51
17284390,The Catch Seafood Room & Oyster Bar,216,Albany,"2332 Whispering Pines Road, Albany, GA 31707",Albany,"Albany, Albany",-84.205025,31.605882,"Seafood, Tapas, Bar Food",40,Dollar($),No,No,No,No,3,3.8,Yellow,Good,250
17284279,Villa Gargano,216,Albany,"1604 N Slappey Blvd, Albany, GA 31701",Albany,"Albany, Albany",-84.1757,31.5985,"Italian, Pizza",10,Dollar($),No,No,No,No,1,3.7,Yellow,Good,117
17284364,3 Squares Diner,216,Albany,"202 W Franklin St, Sylvester, GA 31791",Sylvester,"Sylvester, Albany",-83.8389,31.5308,"American, Breakfast, Diner",10,Dollar($),No,No,No,No,1,3.4,Orange,Average,20
16611114,Whitebull Hotel,14,Armidale,"117 Marsh St, Armidale, NSW",Armidale,"Armidale, Armidale",151.6688792,-30.5147169,"Bar Food, Steak",20,Dollar($),No,No,No,No,2,3.5,Yellow,Good,25
17293281,Last Resort Grill,216,Athens,"184 W Clayton St, Athens, GA 30601",Athens,"Athens, Athens",-83.378273,33.957999,"American, Southern, Southwestern",40,Dollar($),No,No,No,No,3,4.5,Dark Green,Excellent,1821
17293301,Mama's Boy Restaurant,216,Athens,"197 Oak St, GA 30601",Athens,"Athens, Athens",-83.3654,33.9535,Southern,10,Dollar($),No,No,No,No,1,4.5,Dark Green,Excellent,849
17293409,Sr. Sol 1,216,Athens,"175 Tallassee Rd, Athens, GA 30606",Athens,"Athens, Athens",-83.4293,33.9652,Mexican,10,Dollar($),No,No,No,No,1,4.6,Dark Green,Excellent,917
17293163,Choo Choo Eastside,216,Athens,"1055 Gaines School Rd Ste 100, Athens, GA 30605",Athens,"Athens, Athens",-83.3389,33.9259,"Japanese, Korean",10,Dollar($),No,No,No,No,1,3.9,Yellow,Good,439
17293228,The Grill,216,Athens,"171 College Ave, Athens, GA 30601",Athens,"Athens, Athens",-83.375523,33.958198,"Breakfast, Burger, Sandwich",10,Dollar($),No,No,No,No,1,3.7,Yellow,Good,289
17293880,Big City Bread Cafe,216,Athens,"393 N Finley St, Athens, GA 30601",Athens,"Athens, Athens",-83.384004,33.959392,"Breakfast, Sandwich",10,Dollar($),No,No,No,No,1,4.3,Green,Very Good,558
17293169,Clocked,216,Athens,"259 W Washington St, Athens, GA 30601",Athens,"Athens, Athens",-83.3797,33.9584,"American, Burger, Sandwich",10,Dollar($),No,No,No,No,1,4.2,Green,Very Good,613
17293186,DePalma's Italian Cafe - Downtown,216,Athens,"401 E Broad St, Athens, GA 30601",Athens,"Athens, Athens",-83.373596,33.958112,"American, Italian, Pizza",25,Dollar($),No,No,No,No,2,4,Green,Very Good,353
17293180,DePalma's Italian Cafe - East Side,216,Athens,"1965 Barnett Shoals Rd, Athens, GA 30605",Athens,"Athens, Athens",-83.33995,33.924275,"American, Italian, Pizza",25,Dollar($),No,No,No,No,2,4.1,Green,Very Good,387
17293205,Five & Ten,216,Athens,"1073 South Milledge Ave, Athens, GA 30605",Athens,"Athens, Athens",-83.3872482,33.9415545,American,40,Dollar($),No,No,No,No,3,4.3,Green,Very Good,755
17293229,Grit,216,Athens,"199 Prince Ave, Athens, GA 30601",Athens,"Athens, Athens",-83.381625,33.960112,"International, Southern, Vegetarian",10,Dollar($),No,No,No,No,1,4.2,Green,Very Good,800
17293897,Ike & Jane,216,Athens,"1307 Prince Ave, Athens, GA 30606",Athens,"Athens, Athens",-83.400887,33.963296,Sandwich,10,Dollar($),No,No,No,No,1,4.1,Green,Very Good,350
17293273,La Dolce Vita Ristorante,216,Athens,"323 E Broad St, Athens, GA 30601",Athens,"Athens, Athens",-83.4075,33.9584,Italian,40,Dollar($),No,No,No,No,3,4.1,Green,Very Good,464
17293870,Shokitini,216,Athens,"251 W Clayton St, Athens, GA 30601",Athens,"Athens, Athens",-83.379251,33.957503,"Asian, Japanese, Sushi",25,Dollar($),No,No,No,No,2,4.2,Green,Very Good,550
17293877,Taqueria Del Sol,216,Athens,"334 Prince Ave, Athens, GA 30601",Athens,"Athens, Athens",-83.383605,33.960571,"Mexican, Spanish",10,Dollar($),No,No,No,No,1,4.1,Green,Very Good,543
17293890,The National,216,Athens,"232 W. Hancock Ave., Athens, GA 30601",Athens,"Athens, Athens",-83.37967,33.959468,"International, Southern",40,Dollar($),No,No,No,No,3,4.1,Green,Very Good,465
17293915,The Royal Peasant,216,Athens,"1675 S. Lumpkin St., Athens, GA 30606",Athens,"Athens, Athens",-83.38728,33.937502,Bar Food,10,Dollar($),No,No,No,No,1,4.4,Green,Very Good,546
17293422,Transmetropolitan,216,Athens,"145 E Clayton St, Athens, GA 30601",Athens,"Athens, Athens",-83.3764,33.9584,"Italian, Pizza, Sandwich",10,Dollar($),No,No,No,No,1,4.4,Green,Very Good,1098
17293873,Trappeze Pub,216,Athens,"269 N Hull St, Athens, GA 30601",Athens,"Athens, Athens",-83.378881,33.958363,"Burger, Bar Food",25,Dollar($),No,No,No,No,2,4.2,Green,Very Good,579
17294014,Viva! Argentine Cuisine,216,Athens,"247 Prince Ave, Athens, GA 30601",Athens,"Athens, Athens",-83.3828224,33.9600227,"Desserts, Latin American, Argentine",10,Dollar($),No,No,No,No,1,4.1,Green,Very Good,374
17294556,Miyabi Kyoto Japanese Steak House,216,Augusta,"1315 Augusta West Pkwy, Augusta, GA 30909",Augusta,"Augusta, Augusta",-82.0865,33.4721,"Chinese, Steak",40,Dollar($),No,No,No,No,3,4.6,Dark Green,Excellent,717
17294607,Rae's Coastal Cafe,216,Augusta,"3208 W Wimbledon Dr, Augusta, GA 30909",Augusta,"Augusta, Augusta",-82.0698,33.4791,"American, Caribbean, Seafood",40,Dollar($),No,No,No,No,3,4.9,Dark Green,Excellent,548
17294279,The Bee's Knees,216,Augusta,"211 10th Street, Augusta, GA 30901",Augusta,"Augusta, Augusta",-81.97,33.4765,"International, Tapas, Vegetarian",25,Dollar($),No,No,No,No,2,4.5,Dark Green,Excellent,631
17294300,Boll Weevil Cafe,216,Augusta,"10 9th St, Augusta, GA 30901",Augusta,"Augusta, Augusta",-81.9684,33.474,"Desserts, Sandwich, Southern",10,Dollar($),No,No,No,No,1,3.9,Yellow,Good,372
17295215,Farmhaus Burger,216,Augusta,"1204 Broad St, Augusta, GA 30901",Augusta,"Augusta, Augusta",-81.973006,33.477444,"American, Burger",25,Dollar($),No,No,No,No,2,3.9,Yellow,Good,201
17295028,Manuel's Bread Cafe,216,Augusta,"505 Railroad Ave, North Augusta, GA 29841",Augusta,"Augusta, Augusta",-81.965571,33.481779,"Breakfast, French",40,Dollar($),No,No,No,No,3,3.8,Yellow,Good,332
17294642,Sconyers Bar B Que,216,Augusta,"2250 Sconyers Way, Augusta, GA 30906",Augusta,"Augusta, Augusta",-82.0327,33.4086,BBQ,25,Dollar($),No,No,No,No,2,3.5,Yellow,Good,304
17295109,Frog Hollow Tavern,216,Augusta,"1282 broad street, Augusta, GA 30901",Augusta,"Augusta, Augusta",-81.974944,33.478231,American,40,Dollar($),No,No,No,No,3,4.3,Green,Very Good,368
17294441,Giuseppe's Pizza & Italian Specialities,216,Augusta,"3690 Wheeler Rd, Augusta, GA 30909",Augusta,"Augusta, Augusta",-82.096,33.4827,"Desserts, Italian, Pizza",25,Dollar($),No,No,No,No,2,4.1,Green,Very Good,430
17294552,Mellow Mushroom,216,Augusta,"1167 Broad St, Augusta, GA 30901",Augusta,"Augusta, Augusta",-81.9721,33.4778,"Italian, Pizza, Sandwich",25,Dollar($),No,No,No,No,2,4.4,Green,Very Good,433
17294565,Nacho Mamas Burritos,216,Augusta,"976 Broad St, Augusta, GA 30901",Augusta,"Augusta, Augusta",-81.9694,33.4764,Mexican,10,Dollar($),No,No,No,No,1,4,Green,Very Good,380
17294623,Rhinehart's Oyster Bar,216,Augusta,"3051 Washington Rd, Augusta, GA 30907",Augusta,"Augusta, Augusta",-82.0505,33.5133,"Bar Food, Sandwich, Seafood",25,Dollar($),No,No,No,No,2,4,Green,Very Good,456
17294712,Takosushi,216,Augusta,"437 Highland Ave, Augusta, GA 30909",Augusta,"Augusta, Augusta",-82.0301,33.4848,"Mexican, Southwestern, Sushi",40,Dollar($),No,No,No,No,3,4.2,Green,Very Good,647
17295033,The Chop House,216,Augusta,"Augusta Mall, Augusta, GA 30909",Augusta,"Augusta, Augusta",-82.080788,33.467201,Steak,40,Dollar($),No,No,No,No,3,4,Green,Very Good,360
17295069,The Taj of India,216,Augusta,"502 Furys Ferry Rd, Augusta, GA 30907",Augusta,"Augusta, Augusta",-82.0805493,33.5375868,Indian,25,Dollar($),No,No,No,No,2,4,Green,Very Good,227
17294261,Augsburg Haus,216,Augusta,"4460 Washington Road, Evans, GA 30809",Evans,"Evans, Augusta",-82.143793,33.544342,German,25,Dollar($),No,No,No,No,2,3.9,Yellow,Good,290
17295115,Pho Bac,216,Augusta,"4300 Towne Centre, Evans, GA 30809",Evans,"Evans, Augusta",-82.126161,33.532249,Vietnamese,10,Dollar($),No,No,No,No,1,4.1,Green,Very Good,270
17294836,Rhinehart's Oyster Bar,216,Augusta,"303 North Bel Air Rd, Evans, GA 30809",Evans,"Evans, Augusta",-82.141284,33.521291,"Burger, Seafood",25,Dollar($),No,No,No,No,2,4,Green,Very Good,326
17294850,Thai Kitchen,216,Augusta,"4357 Washington Road, Evans, GA 30809",Evans,"Evans, Augusta",-82.1328,33.5406,Thai,35,Dollar($),No,No,No,No,3,4.3,Green,Very Good,317
17294883,El Kiosco Mexican Restaurant,216,Augusta,"5174 Wrightsboro Rd, Grovetown, GA 30813",Grovetown,"Grovetown, Augusta",-82.1997,33.4574,Mexican,10,Dollar($),No,No,No,No,1,4.2,Green,Very Good,300
16608864,Taste of Balingup,14,Balingup,"63 South Western Hwy, Balingup, WA",Balingup,"Balingup, Balingup",115.9844924,-33.7845269,Modern Australian,20,Dollar($),No,No,No,No,2,3.2,Orange,Average,21
16604911,Bridge Road Brewers,14,Beechworth,"Old Coach House 50 Ford St, Beechworth, Beechworth, VIC",Beechworth,"Beechworth, Beechworth",146.685852,-36.360439,"Pizza, Bar Food",20,Dollar($),No,No,No,No,2,4.6,Dark Green,Excellent,237
17303465,Bardenay,216,Boise,"610 W Grove St, Boise, ID 83702",Boise,"Boise, Boise",-116.2019,43.6138,"American, Bar Food",25,Dollar($),No,No,No,No,2,4.5,Dark Green,Excellent,879
17303642,Flatbread Neapolitan Pizzeria,216,Boise,"800 W Main Suite 230, Boise, ID 83702",Boise,"Boise, Boise",-116.203466,43.616068,"Italian, Pizza",25,Dollar($),No,No,No,No,2,4.6,Dark Green,Excellent,615
17303670,Goldy's Breakfast Bistro,216,Boise,"108 S Capitol Blvd, Boise, ID 83702",Boise,"Boise, Boise",-116.2023,43.6149,"Breakfast, Sandwich",25,Dollar($),No,No,No,No,2,4.5,Dark Green,Excellent,879
17303545,Chandlers Steakhouse,216,Boise,"981 W Grove St, Boise, ID 83702",Boise,"Boise, Boise",-116.2064,43.6157,"American, Seafood, Steak",70,Dollar($),No,No,No,No,4,3.9,Yellow,Good,379
17303655,Bar Gernika Basque Pub & Eatery,216,Boise,"202 S Capitol Blvd, Boise, ID 83702",Boise,"Boise, Boise",-116.2031,43.614,"European, Spanish",10,Dollar($),No,No,No,No,1,4.3,Green,Very Good,303
17304691,Barbacoa Restaurant,216,Boise,"276 Bobwhite Ct, Boise, ID 83706",Boise,"Boise, Boise",-116.185034,43.597235,"Latin American, Steak",70,Dollar($),No,No,No,No,4,4.1,Green,Very Good,538
17303478,Big Jud's,216,Boise,"1289 Protest Rd, Boise, ID 83706",Boise,"Boise, Boise",-116.2062,43.5945,"American, Burger, Sandwich",10,Dollar($),No,No,No,No,1,4.2,Green,Very Good,334
17303480,Bittercreek Ale House,216,Boise,"246 N 8th St, Boise, ID 83702",Boise,"Boise, Boise",-116.2022,43.6167,"American, Bar Food",25,Dollar($),No,No,No,No,2,4.3,Green,Very Good,555
17304733,Boise Fry Company,216,Boise,"204 N Capitol Blvd, Boise, ID 83702",Boise,"Boise, Boise",-116.193409,43.610279,"American, Burger",10,Dollar($),No,No,No,No,1,4.4,Green,Very Good,823
17303646,Flying Pie Pizzaria,216,Boise,"6508 W Fairview Ave, Boise, ID 83704",Boise,"Boise, Boise",-116.2625,43.6192,Pizza,25,Dollar($),No,No,No,No,2,4.1,Green,Very Good,550
17304929,Fork,216,Boise,"199 N 8th St, Boise, ID 83702",Boise,"Boise, Boise",-116.202845,43.616295,"American, Burger",25,Dollar($),No,No,No,No,2,4.4,Green,Very Good,650
17303684,Guido's Original New York Style Pizza,216,Boise,"235 N 5th St, Boise, ID 83702",Boise,"Boise, Boise",-116.199,43.615,Pizza,10,Dollar($),No,No,No,No,1,4.3,Green,Very Good,410
17303772,Los Beto's,216,Boise,"5220 W Fairview Ave, Boise, ID 83706",Boise,"Boise, Boise",-116.2463,43.6191,Mexican,10,Dollar($),No,No,No,No,1,4.4,Green,Very Good,660
17305123,Lucianos Italian Restaurant,216,Boise,"11 N Orchard St, Boise, ID 83706",Boise,"Boise, Boise",-116.245165,43.6051379,"Italian, Seafood, Vegetarian",25,Dollar($),No,No,No,No,2,4.4,Green,Very Good,360
17303787,Mai Thai Restaurant,216,Boise,"750 W Idaho St, Boise, ID 83702",Boise,"Boise, Boise",-116.2021,43.6162,"Sushi, Thai",40,Dollar($),No,No,No,No,3,4,Green,Very Good,340
17303990,Shige Japanese Cuisine,216,Boise,"100 N 8th St, Boise, ID 83702",Boise,"Boise, Boise",-116.2031,43.6156,"Japanese, Sushi, Teriyaki",25,Dollar($),No,No,No,No,2,4.1,Green,Very Good,393
17304741,The Egg Factory,216,Boise,"8061 W Fairview Ave, Boise, ID 83704",Boise,"Boise, Boise",-116.281809,43.619274,Breakfast,10,Dollar($),No,No,No,No,1,4.3,Green,Very Good,422
17304726,Tucanos,216,Boise,"1388 S Entertainment Ave, Boise, ID 83709",Boise,"Boise, Boise",-116.280614,43.591706,Brazilian,40,Dollar($),No,No,No,No,3,4,Green,Very Good,435
17304486,Texas Roadhouse,216,Boise,"3801 E Fairview Avenue, Meridian, Boise, ID 83642",Meridian,"Meridian, Boise",-116.347304,43.619108,"American, BBQ, Steak",25,Dollar($),No,No,No,No,2,4,Green,Very Good,369
17304533,Brick 29,216,Boise,"320 11th Avenue S, Nampa, ID 83651",Nampa,"Nampa, Boise",-116.5629,43.5777,American,40,Dollar($),No,No,No,No,3,4.4,Green,Very Good,487
17316233,Winifreds,216,Cedar Rapids/Iowa City,"3847 1st Ave SE, Cedar Rapids, IA 52402",Cedar Rapids,"Cedar Rapids, Cedar Rapids/Iowa City",-91.6336,42.0179,"American, Mediterranean, Seafood",40,Dollar($),No,No,No,No,3,3.7,Yellow,Good,98
17315883,Biaggi's Ristorante Italiano,216,Cedar Rapids/Iowa City,"320 Collins Rd NE, Cedar Rapids, IA 52402",Cedar Rapids,"Cedar Rapids, Cedar Rapids/Iowa City",-91.6327,42.0281,"Italian, Pizza",40,Dollar($),No,No,No,No,3,4.1,Green,Very Good,365
17315995,El Super Burrito,216,Cedar Rapids/Iowa City,"3300 Johnson Ave NW, Cedar Rapids, IA 52405",Cedar Rapids,"Cedar Rapids, Cedar Rapids/Iowa City",-91.7148,41.9748,Mexican,10,Dollar($),No,No,No,No,1,4.1,Green,Very Good,190
17316018,Granite City Food & Brewery,216,Cedar Rapids/Iowa City,"4755 1st Ave SE, Cedar Rapids, IA 52402",Cedar Rapids,"Cedar Rapids, Cedar Rapids/Iowa City",-91.6224,42.0249,"American, Breakfast, Burger",40,Dollar($),No,No,No,No,3,4.1,Green,Very Good,429
17316038,Irish Democrat,216,Cedar Rapids/Iowa City,"3207 1st Ave SE, Cedar Rapids, IA 52402",Cedar Rapids,"Cedar Rapids, Cedar Rapids/Iowa City",-91.6347,42.01,"American, BBQ, Burger",25,Dollar($),No,No,No,No,2,4.4,Green,Very Good,430
17316771,Taste of India,216,Cedar Rapids/Iowa City,"1060 Old Marion Rd NE, Cedar Rapids, IA 52402",Cedar Rapids,"Cedar Rapids, Cedar Rapids/Iowa City",-91.6499622,42.0215347,Indian,25,Dollar($),No,No,No,No,2,4.2,Green,Very Good,186
17316201,Thai Moon Restaurant,216,Cedar Rapids/Iowa City,"4362 16th Ave SW, Cedar Rapids, IA 52404",Cedar Rapids,"Cedar Rapids, Cedar Rapids/Iowa City",-91.7266,41.9639,"Chinese, Sushi, Thai",10,Dollar($),No,No,No,No,1,4.2,Green,Very Good,220
17316208,Ting's Red Lantern,216,Cedar Rapids/Iowa City,"540 Boyson Rd NE, Cedar Rapids, IA 52402",Cedar Rapids,"Cedar Rapids, Cedar Rapids/Iowa City",-91.6394,42.0468,Chinese,10,Dollar($),No,No,No,No,1,4.2,Green,Very Good,347
17316389,Monica's,216,Cedar Rapids/Iowa City,"303 2nd Street, Coralville, IA 52241",Coralville,"Coralville, Cedar Rapids/Iowa City",-91.569767,41.670466,"American, Italian, Pizza",25,Dollar($),No,No,No,No,2,3.8,Yellow,Good,161
17316278,Exotic India,216,Cedar Rapids/Iowa City,"102 2nd Ave, Coralville, IA 52241",Coralville,"Coralville, Cedar Rapids/Iowa City",-91.5687,41.6685,Indian,25,Dollar($),No,No,No,No,2,4.1,Green,Very Good,160
17316744,Shorts Burger and Shine,216,Cedar Rapids/Iowa City,"18 S Clinton St, Iowa City, IA 52240",Iowa City,"Iowa City, Cedar Rapids/Iowa City",-91.534424,41.660982,Burger,10,Dollar($),No,No,No,No,1,4.9,Dark Green,Excellent,820
17316751,The Hamburg Inn No. 2 Inc.,216,Cedar Rapids/Iowa City,"214 N Linn St, Iowa City, IA 52245",Iowa City,"Iowa City, Cedar Rapids/Iowa City",-91.531414,41.663849,"American, Breakfast, Burger",10,Dollar($),No,No,No,No,1,4.5,Dark Green,Excellent,488
17316766,Bluebird Diner,216,Cedar Rapids/Iowa City,"330 E Market St, Iowa City, IA 52245",Iowa City,"Iowa City, Cedar Rapids/Iowa City",-91.531093,41.663751,"Breakfast, Diner",25,Dollar($),No,No,No,No,2,3.6,Yellow,Good,253
17316743,Graze,216,Cedar Rapids/Iowa City,"115 East College St, Iowa City, IA 52240",Iowa City,"Iowa City, Cedar Rapids/Iowa City",-91.534302,41.658691,"American, International, Sushi",40,Dollar($),No,No,No,No,3,3.8,Yellow,Good,220
17316374,A & A Pagliai's Pizza,216,Cedar Rapids/Iowa City,"302 E Bloomington St, Iowa City, IA 52245",Iowa City,"Iowa City, Cedar Rapids/Iowa City",-91.5314,41.6648,Pizza,25,Dollar($),No,No,No,No,2,4.3,Green,Very Good,485
17316381,Atlas World Grill,216,Cedar Rapids/Iowa City,"127 Iowa Ave, Iowa City, IA 52240",Iowa City,"Iowa City, Cedar Rapids/Iowa City",-91.5341,41.661,International,40,Dollar($),No,No,No,No,3,4.3,Green,Very Good,428
17316802,BlackStone,216,Cedar Rapids/Iowa City,"503 Westbury Dr Ste 1, Iowa City, IA 52245",Iowa City,"Iowa City, Cedar Rapids/Iowa City",-91.482165,41.667742,"American, Breakfast",25,Dollar($),No,No,No,No,2,4.1,Green,Very Good,294
17316416,Devotay,216,Cedar Rapids/Iowa City,"117 N Linn St, Iowa City, IA 52245",Iowa City,"Iowa City, Cedar Rapids/Iowa City",-91.5318,41.6625,"Mediterranean, Tapas, Vegetarian",40,Dollar($),No,No,No,No,3,4,Green,Very Good,380
17316449,Jimmy Jack's Rib Shack,216,Cedar Rapids/Iowa City,"1940 Lower Muscatine Rd, Iowa City, IA 52240",Iowa City,"Iowa City, Cedar Rapids/Iowa City",-91.5074,41.6428,BBQ,25,Dollar($),No,No,No,No,2,4.2,Green,Very Good,259
17316603,Zoeys Pizzeria,216,Cedar Rapids/Iowa City,"690 10th St, Marion, IA 52302",Marion,"Marion, Cedar Rapids/Iowa City",-91.5995,42.0331,"Pizza, Sandwich",25,Dollar($),No,No,No,No,2,4.7,Dark Green,Excellent,433
16659169,Tokyo Sushi,37,Chatham-Kent,"150 Richmond St, Chatham-Kent, ON N7M2V2",Chatham-Kent,"Chatham-Kent, Chatham-Kent",-82.188438,42.397683,"Japanese, Sushi",25,Dollar($),No,No,No,No,2,3.7,Yellow,Good,176
17558684,Berry Patch Restaurant,216,Clatskanie,"49289 Us-30, Westport, OR 97016",Clatskanie,"Clatskanie, Clatskanie",-123.368151,46.126967,"American, Breakfast, Desserts",10,Dollar($),No,No,No,No,1,4.3,Green,Very Good,96
18366580,Sakura Sushi & Grill,216,Cochrane,"130 Quarry Street, Unit 20, Cochrane, AB T4C 0W5",Cochrane,"Cochrane, Cochrane",-114.472474,51.183934,"Asian, Japanese",25,Dollar($),No,No,No,No,2,3.1,Orange,Average,6
17330755,Uptown Vietnam cuisine,216,Columbus,"1250 Broadway, Columbus, GA 31901",Columbus,"Columbus, Columbus",-84.992671,32.470315,"Asian, Vietnamese",10,Dollar($),No,No,No,No,1,3.3,Orange,Average,33
17330611,Cafe Le Rue @ The Landings,216,Columbus,"2523 Airport Thruway, Columbus, GA 31904",Columbus,"Columbus, Columbus",-84.95591,32.519247,"American, Seafood, Cajun",25,Dollar($),No,No,No,No,2,4.6,Dark Green,Excellent,489
17330609,Mark's City Grille,216,Columbus,"7160 moon road, Columbus, GA 31909",Columbus,"Columbus, Columbus",-84.927047,32.555591,American,25,Dollar($),No,No,No,No,2,4.5,Dark Green,Excellent,345
17330024,B Merrell's,216,Columbus,"7600 Veterans Pkwy, Columbus, GA 31909",Columbus,"Columbus, Columbus",-84.9436,32.5577,"Burger, Bar Food, Southern",25,Dollar($),No,No,No,No,2,3.8,Yellow,Good,149
17330074,Cannon Brewpub,216,Columbus,"1041 Broadway, Columbus, GA 31901",Columbus,"Columbus, Columbus",-84.9936,32.4656,"Pizza, Bar Food",25,Dollar($),No,No,No,No,2,3.9,Yellow,Good,330
17330185,Fuji Japanese Steak House,216,Columbus,"6499 Veterans Pkwy, Columbus, GA 31909",Columbus,"Columbus, Columbus",-84.954984,32.5382197,"Japanese, Steak",40,Dollar($),No,No,No,No,3,3.9,Yellow,Good,247
17330397,Ruth Ann's Family Restaurant,216,Columbus,"941 Veterans Parkway, Columbus, GA 31901",Columbus,"Columbus, Columbus",-84.9876,32.4637,"Breakfast, Diner, Southern",10,Dollar($),No,No,No,No,1,3.7,Yellow,Good,123
17330735,Samurai Japanese Cuisine & Sushi Bar,216,Columbus,"1009 Broadway, Columbus, GA 31901",Columbus,"Columbus, Columbus",-84.9933631,32.4652417,"Japanese, Steak, Sushi",40,Dollar($),No,No,No,No,3,3.6,Yellow,Good,109
17330676,Wasabi Sushi and Thai,216,Columbus,"1639 Bradley Park Dr, Columbus, GA 31904",Columbus,"Columbus, Columbus",-84.96661,32.534002,"Japanese, Sushi, Thai",40,Dollar($),No,No,No,No,3,3.7,Yellow,Good,134
17330048,Buckhead Bar and Grill,216,Columbus,"5010 Armour Rd, Columbus, GA 31904",Columbus,"Columbus, Columbus",-84.95367,32.513154,"Seafood, Steak, Vegetarian",40,Dollar($),No,No,No,No,3,4.2,Green,Very Good,722
17330604,Burt's Butcher Shoppe and Eatery,216,Columbus,"2932 Warm Springs Rd, Columbus, GA 31909",Columbus,"Columbus, Columbus",-84.947569,32.504657,Steak,25,Dollar($),No,No,No,No,2,4.3,Green,Very Good,213
17330087,Chef Lee's Peking Restaurant,216,Columbus,"6100 Bradley Park Dr, Columbus, GA 31904",Columbus,"Columbus, Columbus",-84.9607,32.5393,Chinese,25,Dollar($),No,No,No,No,2,4,Green,Very Good,335
17330137,Country's Barbecue,216,Columbus,"3137 Mercury Dr, Columbus, GA 31906",Columbus,"Columbus, Columbus",-84.9464,32.4792,"BBQ, Southern",25,Dollar($),No,No,No,No,2,4,Green,Very Good,353
17330155,Deorio's,216,Columbus,"3201 Macon Rd Ste 167, Columbus, GA 31906",Columbus,"Columbus, Columbus",-84.9427,32.481,"Italian, Pizza",0,Dollar($),No,No,No,No,1,4,Green,Very Good,170
17330309,Mellow Mushroom,216,Columbus,"6100 Veterans Pkwy, Columbus, GA 31909",Columbus,"Columbus, Columbus",-84.9557,32.5321,Pizza,25,Dollar($),No,No,No,No,2,4.1,Green,Very Good,192
17330311,Meritage,216,Columbus,"1039 1st Ave, Columbus, GA 31901",Columbus,"Columbus, Columbus",-84.992093,32.466158,"American, Tapas",40,Dollar($),No,No,No,No,3,4.1,Green,Very Good,302
17330615,Mongo The Mongolian Fire Pit,216,Columbus,"7830 - E Veterans Pkwy, Columbus, GA 31909",Columbus,"Columbus, Columbus",-84.938698,32.560905,"Asian, Chinese",10,Dollar($),No,No,No,No,1,4.2,Green,Very Good,355
17330638,The Black Cow,216,Columbus,"115 A 12th St, Columbus, GA 31901",Columbus,"Columbus, Columbus",-84.991384,32.468757,American,25,Dollar($),No,No,No,No,2,4.3,Green,Very Good,287
17330628,Wood Stone,216,Columbus,"5739 Whitesville Rd, Columbus, GA 31904",Columbus,"Columbus, Columbus",-84.963201,32.527217,"Italian, Mediterranean, Pizza",40,Dollar($),No,No,No,No,3,4,Green,Very Good,264
17330546,Hunter's Pub,216,Columbus,"11269 GA Hwy 219, Hamilton, GA 31811",Hamilton,"Hamilton, Columbus",-85.0213,32.7455,"American, Seafood, Steak",40,Dollar($),No,No,No,No,3,4.4,Green,Very Good,235
16643459,Consort Restaurant,37,Consort,"4931 50th Street, Consort, AB T0C 1B0",Consort,"Consort, Consort",-110.7746994,52.0082889,"Chinese, Canadian",25,Dollar($),No,No,No,No,2,3,Orange,Average,6
17334434,Thatcher's Barbeque and Grill,216,Dalton,"1214 N Wall St, Calhoun, GA 30701",Calhoun,"Calhoun, Dalton",-84.9396931,34.5251331,"American, BBQ, Southern",25,Dollar($),No,No,No,No,2,3.7,Yellow,Good,38
17334348,Christian and Jake's Bistro,216,Dalton,"555 Georgia Hwy 53, Calhoun, GA 30701",Calhoun,"Calhoun, Dalton",-84.926258,34.474635,"Desserts, Sandwich",10,Dollar($),No,No,No,No,1,4.4,Green,Very Good,122
17334213,Dub's High on the Hog,216,Dalton,"349 S Wall St, Calhoun, GA 30701",Calhoun,"Calhoun, Dalton",-84.9523921,34.4972488,BBQ,25,Dollar($),No,No,No,No,2,4.4,Green,Very Good,207
17334355,Sierra's Mexican Restaurant,216,Dalton,"500 S. 3rd Avenue, Chatsworth, GA 30705",Chatsworth,"Chatsworth, Dalton",-84.767911,34.752476,"Mexican, Tex-Mex",10,Dollar($),No,No,No,No,1,3.9,Yellow,Good,66
17334212,Oakwood Cafe,216,Dalton,"201 West Cuyler Street, Dalton, GA 30720",Dalton,"Dalton, Dalton",-84.969393,34.769686,"BBQ, Breakfast, Southern",10,Dollar($),No,No,No,No,1,4.9,Dark Green,Excellent,249
17333797,Chili's Grill & Bar,216,Dalton,"881 College Dr, Dalton, GA 30720",Dalton,"Dalton, Dalton",-85.0039,34.7643,American,25,Dollar($),No,No,No,No,2,3.8,Yellow,Good,63
17334217,Fuji Japanese Steakhouse,216,Dalton,"1321 W Walnut Ave, Dalton, GA 30720",Dalton,"Dalton, Dalton",-84.992342,34.759551,"Japanese, Sushi",40,Dollar($),No,No,No,No,3,3.8,Yellow,Good,145
17334273,Las Palmas,216,Dalton,"1331 W Walnut Ave, Dalton, GA 30720",Dalton,"Dalton, Dalton",-84.992924,34.759665,Mexican,10,Dollar($),No,No,No,No,1,3.8,Yellow,Good,83
17334254,Tony's Italian Restaurant & Pizza,216,Dalton,"933 Market St, Dalton, GA 30720",Dalton,"Dalton, Dalton",-84.999678,34.758645,Italian,25,Dollar($),No,No,No,No,2,3.7,Yellow,Good,116
17333836,Filling Station,216,Dalton,"316 N Hamilton St, Dalton, GA 30720",Dalton,"Dalton, Dalton",-84.9678,34.7742,"American, Burger",10,Dollar($),No,No,No,No,1,4.1,Green,Very Good,122
17334197,Five Guys Burgers and Fries,216,Dalton,"1303 W. Walnut Ave., Dalton, GA 30720",Dalton,"Dalton, Dalton",-84.990925,34.759273,Fast Food,10,Dollar($),No,No,No,No,1,4.1,Green,Very Good,142
17333882,Los Pablos,216,Dalton,"1513 W Walnut Ave Ste 6, Dalton, GA 30720",Dalton,"Dalton, Dalton",-84.9964,34.7604,Mexican,10,Dollar($),No,No,No,No,1,4.1,Green,Very Good,114
17334211,Kobe Hibachi & Sushi,216,Dalton,"2603 Battlefield Pkwy, Fort Oglethorpe, GA 30742",Fort Oglethorpe,"Fort Oglethorpe, Dalton",-85.2229101,34.9428786,"American, Japanese, Sushi",25,Dollar($),No,No,No,No,2,4.6,Dark Green,Excellent,214
17334390,Soho Hibachi,216,Dalton,"1014 Battlefield Parkway, Fort Oglethorpe, GA 30742",Fort Oglethorpe,"Fort Oglethorpe, Dalton",-85.246237,34.9528157,Japanese,10,Dollar($),No,No,No,No,1,4.3,Green,Very Good,116
17334034,Thai Garden,216,Dalton,"685 Battlefield Pkwy, Fort Oglethorpe, GA 30742",Fort Oglethorpe,"Fort Oglethorpe, Dalton",-85.2545,34.9546,Thai,25,Dollar($),No,No,No,No,2,4.2,Green,Very Good,111
17334414,Southern Bliss Bakery,216,Dalton,"300 W Patton St., Lafayette, GA 30728",LaFayette,"LaFayette, Dalton",-85.294955,34.705093,"Desserts, Sandwich",10,Dollar($),No,No,No,No,1,3.7,Yellow,Good,25
17334082,Bailey's Bar-B-Que,216,Dalton,"5540 Highway 41, Ringgold, GA 30736",Ringgold,"Ringgold, Dalton",-85.1321,34.9273,BBQ,10,Dollar($),No,No,No,No,1,4.1,Green,Very Good,128
17334364,Farm To Fork,216,Dalton,"118 Remco Shops Lane, Ringgold, GA 30736",Ringgold,"Ringgold, Dalton",-85.130492,34.912109,"American, Diner, Southern",10,Dollar($),No,No,No,No,1,4.3,Green,Very Good,244
17334398,Home Plate Grill,216,Dalton,"7807 Nashville St, Ringgold, GA 30736",Ringgold,"Ringgold, Dalton",-85.1079396,34.9151853,"American, BBQ, Southern",10,Dollar($),No,No,No,No,1,4.2,Green,Very Good,112
17334219,Pie Slingers Pizzeria,216,Dalton,"56A Fieldstone Village Drive, Rock Spring, GA 30739",Rock Spring,"Rock Spring, Dalton",-85.249727,34.851907,"Italian, Pizza",10,Dollar($),No,No,No,No,1,4.1,Green,Very Good,144
17335173,Olive Tree Cafe,216,Davenport,"2513 53rd Avenue, Bettendorf, IA 52722",Bettendorf,"Bettendorf, Davenport",-90.496986,41.574935,"Indian, Mediterranean, Middle Eastern",25,Dollar($),No,No,No,No,2,4.6,Dark Green,Excellent,166
17335195,"Red Ginger Sushi, Grill & Bar",216,Davenport,"793 Middle Rd, Bettendorf, IA 52722",Bettendorf,"Bettendorf, Davenport",-90.522479,41.53845,"Sushi, Teriyaki",40,Dollar($),No,No,No,No,3,4.5,Dark Green,Excellent,208
17335225,Crust Stone Oven Pizza,216,Davenport,"2561 E 53rd Ave, Bettendorf, IA 52722",Bettendorf,"Bettendorf, Davenport",-90.4912446,41.5747801,"Burger, Pizza",25,Dollar($),No,No,No,No,2,3.9,Yellow,Good,136
17335219,Jimmy's Pancake House,216,Davenport,"2521 - 18th St., Bettendorf, IA 52722",Bettendorf,"Bettendorf, Davenport",-90.504176,41.548746,"American, Breakfast, Greek",10,Dollar($),No,No,No,No,1,4,Green,Very Good,85
17334965,Trattoria Tiramisu,216,Davenport,"1804 State St, Bettendorf, IA 52722",Bettendorf,"Bettendorf, Davenport",-90.50709,41.525384,Italian,25,Dollar($),No,No,No,No,2,4.1,Green,Very Good,117
17335189,Prairie Grille at SteepleGate Inn,216,Davenport,"100 W 76th St, Davenport, IA 52806",Davenport,"Davenport, Davenport",-90.574088,41.593892,"American, Breakfast",25,Dollar($),No,No,No,No,2,3.4,Orange,Average,53
17335156,Tantra Asian Bistro,216,Davenport,"589 East 53rd St, Davenport, IA 52807",Davenport,"Davenport, Davenport",-90.565837,41.574459,Asian,25,Dollar($),No,No,No,No,2,4.9,Dark Green,Excellent,474
17334717,Chick-fil-A,216,Davenport,"320 W Kimberly Rd, Davenport, IA 52806",Davenport,"Davenport, Davenport",-90.5716,41.5604,Fast Food,10,Dollar($),No,No,No,No,1,3.9,Yellow,Good,125
17334752,Duck City Bistro,216,Davenport,"115 E 3rd St, Davenport, IA 52801",Davenport,"Davenport, Davenport",-90.5737,41.5223,"American, French",70,Dollar($),No,No,No,No,4,3.7,Yellow,Good,201
18453427,Frick's Tap,216,Davenport,"1402 W 3rd Street, IA 52802",Davenport,"Davenport, Davenport",-90.59466452,41.52253634,"American, Bar Food, BBQ",25,Dollar($),No,No,No,No,2,0,White,Not rated,2
17793744,Los Agaves,216,Davenport,"4882 Utica Ridge Rd, Davenport, IA 52807",Davenport,"Davenport, Davenport",-90.5154313,41.5709434,Mexican,25,Dollar($),No,No,No,No,2,0,White,Not rated,3
17334679,Azteca,216,Davenport,"4811 N Brady St Ste 3, Davenport, IA 52806",Davenport,"Davenport, Davenport",-90.5683,41.5699,Mexican,0,Dollar($),No,No,No,No,1,4.3,Green,Very Good,167
17334718,China Cafe,216,Davenport,"3018 E 53rd St, Davenport, IA 52807",Davenport,"Davenport, Davenport",-90.5321,41.5749,Chinese,25,Dollar($),No,No,No,No,2,4,Green,Very Good,112
17334763,Exotic Thai Restaurant,216,Davenport,"2303 E 53rd St, Davenport, IA 52807",Davenport,"Davenport, Davenport",-90.5432,41.5747,Thai,25,Dollar($),No,No,No,No,2,4.1,Green,Very Good,256
17335158,Front Street Brewery,216,Davenport,"208 E River Dr, Davenport, IA 52801",Davenport,"Davenport, Davenport",-90.572418,41.520389,American,10,Dollar($),No,No,No,No,1,4.3,Green,Very Good,123
17334782,Granite City Food & Brewery,216,Davenport,"5270 Utica Ridge Rd, Davenport, IA 52807",Davenport,"Davenport, Davenport",-90.5137,41.5745,American,25,Dollar($),No,No,No,No,2,4,Green,Very Good,199
17334846,Los Agaves,216,Davenport,"3852 N Brady St, Davenport, IA 52806",Davenport,"Davenport, Davenport",-90.5686,41.559,Mexican,25,Dollar($),No,No,No,No,2,4.1,Green,Very Good,157
17334853,Machine Shed Restaurant,216,Davenport,"7250 Northwest Blvd, Davenport, IA 52806",Davenport,"Davenport, Davenport",-90.6136,41.5944,American,25,Dollar($),No,No,No,No,2,4.1,Green,Very Good,100
17335168,Osaka,216,Davenport,"4901 Utica Ridge Rd, Davenport, IA 52807",Davenport,"Davenport, Davenport",-90.515175,41.570997,"Japanese, Sushi",40,Dollar($),No,No,No,No,3,4.2,Green,Very Good,141
17334958,Texas Roadhouse,216,Davenport,"4005 E 53rd Street, Davenport, IA 52807",Davenport,"Davenport, Davenport",-90.517,41.5747,"American, BBQ, Steak",25,Dollar($),No,No,No,No,2,4.2,Green,Very Good,197
17258496,Hickory Park,216,Des Moines,"1404 S Duff Ave, Ames, IA 50010",Ames,"Ames, Des Moines",-93.610084,42.010254,"BBQ, Burger, Desserts",25,Dollar($),No,No,No,No,2,4.5,Dark Green,Excellent,1025
17259395,The Cafe,216,Des Moines,"2616 Northridge Pkwy, Ames, IA 50010",Ames,"Ames, Des Moines",-93.643094,42.048779,"American, Coffee and Tea",25,Dollar($),No,No,No,No,2,4.9,Dark Green,Excellent,570
17258350,Flying Mango,216,Des Moines,"4345 Hickman Rd, Des Moines, IA 50310",Beaverdale,"Beaverdale, Des Moines",-93.677638,41.614965,"BBQ, Caribbean, Cajun",40,Dollar($),No,No,No,No,3,4.5,Dark Green,Excellent,674
17258136,Cool Basil,216,Des Moines,"8801 University Ave, Clive, IA 50325",Clive,"Clive, Des Moines",-93.739573,41.600564,"Asian, Sushi, Thai",25,Dollar($),No,No,No,No,2,4.1,Green,Very Good,496
17258522,HuHot Mongolian Grill,216,Des Moines,"4100 University Avenue, West Des Moines, IA 50266",Clive,"Clive, Des Moines",-93.760027,41.60028,"Asian, Chinese",25,Dollar($),No,No,No,No,2,4,Green,Very Good,411
17259958,Malo,216,Des Moines,"900 Mulberry Street, Des Moines, IA 50309",Downtown,"Downtown, Des Moines",-93.627896,41.583309,"Latin American, Mexican",25,Dollar($),No,No,No,No,2,3.2,Orange,Average,113
17258036,Centro,216,Des Moines,"1007 Locust St, Des Moines, IA 50309",Downtown,"Downtown, Des Moines",-93.6300803,41.5857431,"Italian, Pizza",40,Dollar($),No,No,No,No,3,4.5,Dark Green,Excellent,1109
17259368,Fong's Pizza,216,Des Moines,"223 4th Street, Des Moines, IA 50309",Downtown,"Downtown, Des Moines",-93.621631,41.585465,"Chinese, Pizza",25,Dollar($),No,No,No,No,2,4.6,Dark Green,Excellent,728
17257684,A Dong Restaurant,216,Des Moines,"1511 High Street, Des Moines, IA 50309",Downtown,"Downtown, Des Moines",-93.637401,41.587219,"Asian, Vegetarian, Vietnamese, Bubble Tea",10,Dollar($),No,No,No,No,1,4.4,Green,Very Good,659
17258154,Court Avenue Brewing Company,216,Des Moines,"309 Court Ave, Des Moines, IA 50309",Downtown,"Downtown, Des Moines",-93.620726,41.58536,"American, Pizza, Bar Food",40,Dollar($),No,No,No,No,3,4.2,Green,Very Good,370
17259340,Django,216,Des Moines,"210 10th Street, Des Moines, IA 50309",Downtown,"Downtown, Des Moines",-93.629436,41.584027,French,40,Dollar($),No,No,No,No,3,4.3,Green,Very Good,532
17259243,Miyabi 9,216,Des Moines,"512 E Grand Ave, Des Moines, IA 50309",East Village,"East Village, Des Moines",-93.611366,41.590819,"Japanese, Sushi",25,Dollar($),No,No,No,No,2,4.8,Dark Green,Excellent,860
17259625,Zombie Burger + Drink Lab,216,Des Moines,"300 E. Grand Ave., Des Moines, IA 50309",East Village,"East Village, Des Moines",-93.61474,41.590106,"Burger, Desserts, Vegetarian",10,Dollar($),No,No,No,No,1,4.2,Green,Very Good,943
17259169,Tursi's Latin King,216,Des Moines,"2200 Hubbell Ave, Des Moines, IA 50317",Fairground,"Fairground, Des Moines",-93.577383,41.601415,"American, Italian",70,Dollar($),No,No,No,No,4,4.1,Green,Very Good,476
17259166,Tsing Tsao South,216,Des Moines,"4230 Fleur Dr, Des Moines, IA 50321",Greater South Side,"Greater South Side, Des Moines",-93.645245,41.545869,Chinese,10,Dollar($),No,No,No,No,1,4.1,Green,Very Good,218
17259335,Bandit Burrito,216,Des Moines,"5340 Merle Hay Road, Johnston, IA 50131",Johnston,"Johnston, Des Moines",-93.6976773,41.6714654,"Breakfast, Mexican, Southwestern",10,Dollar($),No,No,No,No,1,4,Green,Very Good,214
17259248,Jethro's BBQ,216,Des Moines,"3100 Forest Ave, Des Moines, IA 50311",Kingman Place Historic District,"Kingman Place Historic District, Des Moines",-93.659797,41.603901,"American, BBQ",25,Dollar($),No,No,No,No,2,4.3,Green,Very Good,699
17258552,The Machine Shed Restaurant,216,Des Moines,"11151 Hickman Road, Urbandale, IA 50322",Urbandale,"Urbandale, Des Moines",-93.772033,41.615083,"American, Breakfast",25,Dollar($),No,No,No,No,2,3.8,Yellow,Good,308
17259550,Mi Patria,216,Des Moines,"1410 22nd St., West Des Moines, IA 50266",West Des Moines,"West Des Moines, Des Moines",-93.73624,41.594039,Latin American,25,Dollar($),No,No,No,No,2,4,Green,Very Good,157
17259200,Waterfront Seafood Market,216,Des Moines,"2900 University Ave, West Des Moines, IA 50266",West Des Moines,"West Des Moines, Des Moines",-93.7441981,41.5991771,"Seafood, Sushi",40,Dollar($),No,No,No,No,3,4.2,Green,Very Good,530
16615894,The Giggling Goat,14,Dicky Beach,"14 Beerburrum St, Dicky Beach, QLD",Dicky Beach,"Dicky Beach, Dicky Beach",153.137401,-26.783576,"Coffee and Tea, Tea, Modern Australian",7,Dollar($),No,No,No,No,1,3.6,Yellow,Good,29
17342816,Burnt Toast Cafe,216,Dubuque,"1220 Iowa St, Dubuque, IA 52001",Dubuque,"Dubuque, Dubuque",-90.667668,42.504759,Breakfast,10,Dollar($),No,No,No,No,1,3.4,Orange,Average,33
17342498,Catfish Charlie's,216,Dubuque,"1630 E 16th St, Dubuque, IA 52001",Dubuque,"Dubuque, Dubuque",-90.6499328,42.5124724,Seafood,25,Dollar($),No,No,No,No,2,3.3,Orange,Average,40
17342648,Salsa's Mexican Restaurant,216,Dubuque,"1091 Main St, Dubuque, IA 52001",Dubuque,"Dubuque, Dubuque",-90.6684746,42.5032004,Mexican,10,Dollar($),No,No,No,No,1,3.4,Orange,Average,153
17342781,Tony Roma's,216,Dubuque,"350 Bell St, Dubuque, IA 52001",Dubuque,"Dubuque, Dubuque",-90.658609,42.496464,"American, BBQ, Seafood",25,Dollar($),No,No,No,No,2,3.3,Orange,Average,65
17342799,Vinny Vanucchi's,216,Dubuque,"180 Main Street, Dubuque, IA 52001",Dubuque,"Dubuque, Dubuque",-90.664029,42.495689,Italian,25,Dollar($),No,No,No,No,2,3.4,Orange,Average,58
17342772,Champps Americana,216,Dubuque,"3100 Dodge St., Dubuque, IA 52003",Dubuque,"Dubuque, Dubuque",-90.715247,42.492018,"American, Burger, Sandwich",25,Dollar($),No,No,No,No,2,3.5,Yellow,Good,100
17342771,Fiesta Cancun,216,Dubuque,"2515 NW Arterial, Dubuque, IA 52002",Dubuque,"Dubuque, Dubuque",-90.740213,42.49092,Mexican,10,Dollar($),No,No,No,No,1,3.6,Yellow,Good,156
17342548,Happy Joe's Pizza & Ice Cream,216,Dubuque,"855 Century Dr, Dubuque, IA 52002",Dubuque,"Dubuque, Dubuque",-90.7264,42.4955,"Desserts, Pizza, Ice Cream",0,Dollar($),No,No,No,No,1,3.5,Yellow,Good,74
17342556,Houlihan's,216,Dubuque,"1795 Greyhound Park Rd, Dubuque, IA 52001",Dubuque,"Dubuque, Dubuque",-90.645294,42.516621,"American, Burger",25,Dollar($),No,No,No,No,2,3.6,Yellow,Good,117
17342811,Ichiban Hibachi Steakhouse & Sushi Bar,216,Dubuque,"3187 University Ave, Dubuque, IA 52001",Dubuque,"Dubuque, Dubuque",-90.712084,42.492963,"Japanese, Steak, Sushi",40,Dollar($),No,No,No,No,3,3.7,Yellow,Good,83
17342576,Kalmes Breaktime Bar & Grill,216,Dubuque,"1097 Jackson St, Dubuque, IA 52001",Dubuque,"Dubuque, Dubuque",-90.6646,42.5043,"American, Burger",25,Dollar($),No,No,No,No,2,3.6,Yellow,Good,48
17342770,L. May Eatery,216,Dubuque,"1072 Main St, Dubuque, IA 52001",Dubuque,"Dubuque, Dubuque",-90.668164,42.503075,"International, Pizza",40,Dollar($),No,No,No,No,3,3.8,Yellow,Good,198
17342585,Los Aztecas,216,Dubuque,"2700 Dodge St, Dubuque, IA 52003",Dubuque,"Dubuque, Dubuque",-90.7055,42.4916,Mexican,10,Dollar($),No,No,No,No,1,3.5,Yellow,Good,126
17342494,Manna Java World Cafe,216,Dubuque,"700 Locust St, Dubuque, IA 52001",Dubuque,"Dubuque, Dubuque",-90.6677349,42.500191,"Breakfast, Pizza",10,Dollar($),No,No,No,No,1,3.5,Yellow,Good,119
17342594,Mario's Italian Restaurant,216,Dubuque,"1298 Main St, Dubuque, IA 52001",Dubuque,"Dubuque, Dubuque",-90.6691,42.5048,"American, Italian",25,Dollar($),No,No,No,No,2,3.6,Yellow,Good,140
17342625,Pepper Sprout Incorporated,216,Dubuque,"378 Main St, Dubuque, IA 52001",Dubuque,"Dubuque, Dubuque",-90.6651,42.4974,American,40,Dollar($),No,No,No,No,3,3.6,Yellow,Good,159
17342652,Shot Tower Inn,216,Dubuque,"290 Locust St, Dubuque, IA 52001",Dubuque,"Dubuque, Dubuque",-90.6658,42.4963,"Italian, Pizza",25,Dollar($),No,No,No,No,2,3.6,Yellow,Good,131
17342665,Sunshine Family Restaurant,216,Dubuque,"401 Central Ave, Dubuque, IA 52001",Dubuque,"Dubuque, Dubuque",-90.663686,42.4982789,"American, Breakfast, Burger",10,Dollar($),No,No,No,No,1,3.5,Yellow,Good,60
17342810,Watershed Cafe,216,Dubuque,"51 W 32nd Street, Dubuque, IA 52001",Dubuque,"Dubuque, Dubuque",-90.684882,42.527556,"American, Burger, Pizza, Cafe",25,Dollar($),No,No,No,No,2,3.7,Yellow,Good,89
17342775,Woodfire Grille,216,Dubuque,"301 Bell Street, Dubuque, IA 52001",Dubuque,"Dubuque, Dubuque",-90.658988,42.496378,"American, Seafood, Steak",70,Dollar($),No,No,No,No,4,3.6,Yellow,Good,72
16612028,The Belle General,14,East Ballina,"12 Shelly Beach Rd, East Ballina, NSW",East Ballina,"East Ballina, East Ballina",153.593331,-28.862663,Cafe,20,Dollar($),No,No,No,No,2,4.1,Green,Very Good,56
17536645,Jehova es Mi Pastor Tacos y Burritos,216,Fernley,"135 W. Main Street, Fernley, NV 89408",Fernley,"Fernley, Fernley",-119.252694,39.607515,Mexican,10,Dollar($),No,No,No,No,1,3.7,Yellow,Good,83
16613507,Flaxton Gardens,14,Flaxton,"313 Flaxton Drive, Flaxton, QLD",Flaxton,"Flaxton, Flaxton",152.8771473,-26.6521332,"Tea, Modern Australian",30,Dollar($),No,No,No,No,3,3.5,Yellow,Good,37
16607969,Bespoke Harvest,14,Forrest,"16 Grant St, Forrest, VIC",Forrest,"Forrest, Forrest",143.714315,-38.517292,"Cafe, Australian",20,Dollar($),No,No,No,No,2,3.7,Yellow,Good,29
17374405,Houndstooth Grill & Tavern,216,Gainesville,"6323 Grand Hickory Dr Ste 200A, Braselton, GA 30517",Braselton,"Braselton, Gainesville",-83.8461,34.0901,"American, Sandwich, Seafood",25,Dollar($),No,No,No,No,2,4.4,Green,Very Good,239
17375060,Hawg Wild BBQ & Catfish House,216,Gainesville,"515 Grant Street, Clarkesville, GA 30523",Clarkesville,"Clarkesville, Gainesville",-83.520693,34.61802,"BBQ, Burger, Seafood",10,Dollar($),No,No,No,No,1,4.1,Green,Very Good,235
17375164,Bourbon Street Grille,216,Gainesville,"90 Public Sq N, Dahlonega, GA 30533",Dahlonega,"Dahlonega, Gainesville",-83.985353,34.532973,"American, Burger, Cajun",25,Dollar($),No,No,No,No,2,3.8,Yellow,Good,88
17374552,Corkscrew Cafe,216,Gainesville,"51 W Main St, Dahlonega, GA 30533",Dahlonega,"Dahlonega, Gainesville",-83.9858,34.5318,,40,Dollar($),No,No,No,No,3,3.9,Yellow,Good,209
17375078,Smokin Gold BBQ,216,Gainesville,"59 E Main St, Dahlonega, GA 30533",Dahlonega,"Dahlonega, Gainesville",-83.983939,34.533626,BBQ,10,Dollar($),No,No,No,No,1,3.9,Yellow,Good,133
17375049,Hoka-Hoka Japanese Steak & Sushi,216,Gainesville,"617 North Grove Street, Dahlonega, GA 30533",Dahlonega,"Dahlonega, Gainesville",-83.989317,34.541044,"Chinese, Japanese, Thai",10,Dollar($),No,No,No,No,1,4.4,Green,Very Good,267
17375077,Shenanigan's Irish Pub,216,Gainesville,"87 N. Chestatee St., Dahlonega, GA 30533",Dahlonega,"Dahlonega, Gainesville",-83.986119,34.533198,"Bar Food, Seafood, Vegetarian",25,Dollar($),No,No,No,No,2,4.1,Green,Very Good,171
17375141,Fish Tales Lakeside Grille,216,Gainesville,"6330 Mitchell Street, Flowery Branch, GA 30542",Flowery Branch,"Flowery Branch, Gainesville",-83.938024,34.183573,Seafood,25,Dollar($),No,No,No,No,2,3.8,Yellow,Good,107
17375198,Antebellum,216,Gainesville,"5510 Church Street, Flowery Branch, GA 30542",Flowery Branch,"Flowery Branch, Gainesville",-83.926217,34.185707,"American, Southern",40,Dollar($),No,No,No,No,3,4.3,Green,Very Good,164
17375180,Moonie's Texas Barbecue,216,Gainesville,"5545 Atlanta Highway, Flowery Branch, GA 30542",Flowery Branch,"Flowery Branch, Gainesville",-83.927794,34.180043,"BBQ, Sandwich",10,Dollar($),No,No,No,No,1,4.1,Green,Very Good,182
17375072,Atlanta Highway Seafood Market,216,Gainesville,"227 Atlanta Highway Suite 900, Gainesville, GA 30501",Gainesville,"Gainesville, Gainesville",-83.838457,34.285102,"Sandwich, Seafood, Cajun",25,Dollar($),No,No,No,No,2,4.9,Dark Green,Excellent,681
17375047,Eat at Thai,216,Gainesville,"975 Dawsonville Hwy, Gainesville, GA 30501",Gainesville,"Gainesville, Gainesville",-83.857993,34.300182,Thai,10,Dollar($),No,No,No,No,1,4.6,Dark Green,Excellent,357
17375074,Smoke House BBQ and Catering,216,Gainesville,"3205 Atlanta Hwy, Atlanta Highway, Gainesville, GA, Gainesville, GA 30507",Gainesville,"Gainesville, Gainesville",-83.860098,34.222755,BBQ,25,Dollar($),No,No,No,No,2,3.8,Yellow,Good,89
17374921,2 Dog,216,Gainesville,"317 Spring St SE, Gainesville, GA 30501",Gainesville,"Gainesville, Gainesville",-83.824023,34.300567,"American, European, Sandwich",25,Dollar($),No,No,No,No,2,4.2,Green,Very Good,350
17374819,Longstreet Cafe,216,Gainesville,"1043 Riverside Terrace, Gainesville, GA 30501",Gainesville,"Gainesville, Gainesville",-83.8272,34.3166,Southern,10,Dollar($),No,No,No,No,1,4.3,Green,Very Good,298
17375089,Re-Cess,216,Gainesville,"118 Bradford St NE, Gainesville, GA 30501",Gainesville,"Gainesville, Gainesville",-83.82686,34.300332,"American, Southern",25,Dollar($),No,No,No,No,2,4.2,Green,Very Good,319
17375214,Bodensee,216,Gainesville,"64 Munich Strasse, Helen, GA 30545",Helen,"Helen, Gainesville",-83.727741,34.701594,German,40,Dollar($),No,No,No,No,3,3.8,Yellow,Good,114
17374951,Hofer's Bakery & Cafe,216,Gainesville,"8758 N Main St, Helen, GA 30545",Helen,"Helen, Gainesville",-83.7345,34.7024,"German, Ice Cream",10,Dollar($),No,No,No,No,1,3.9,Yellow,Good,136
17374978,Troll Tavern,216,Gainesville,"8590 N Main St Ste B, Helen, GA 30545",Helen,"Helen, Gainesville",-83.7334,34.7021,"Burger, German, Sandwich",25,Dollar($),No,No,No,No,2,2.2,Red,Poor,108
17375104,The Nacoochee Village Tavern & Pizzeria,216,Gainesville,"7275 S Main St., Helen, GA 30545",Helen,"Helen, Gainesville",-83.713498,34.691208,"Italian, Pizza, Sandwich",10,Dollar($),No,No,No,No,1,4,Green,Very Good,161
16604358,Blue Bean Love Cafe,14,Hepburn Springs,"115 Main Rd, Hepburn Springs, Hepburn Springs, VIC",Hepburn Springs,"Hepburn Springs, Hepburn Springs",144.1387014,-37.3123267,"Cafe, Coffee and Tea, Modern Australian",20,Dollar($),No,No,No,No,2,3.8,Yellow,Good,192
16604896,La Trattoria of Lavandula,14,Hepburn Springs,"350 Hepburn-Newstead Road, Hepburn Springs, VIC",Hepburn Springs,"Hepburn Springs, Hepburn Springs",144.110062,-37.275494,"Italian, Fusion, Cafe",7,Dollar($),No,No,No,No,1,3.8,Yellow,Good,93
16612550,5 Little Pigs,14,Huskisson,"64 Owen St, Huskisson, NSW",Huskisson,"Huskisson, Huskisson",150.6710743,-35.0388698,"Breakfast, Modern Australian",20,Dollar($),No,No,No,No,2,4.1,Green,Very Good,40
16606299,Beach Box Cafe,14,Inverloch,"6a Ramsay Blvd, Inverloch, VIC",Inverloch,"Inverloch, Inverloch",145.7287133,-38.6347458,"Burger, Coffee and Tea, Modern Australian",7,Dollar($),No,No,No,No,1,3.7,Yellow,Good,100
16605794,Funkey Monkey,14,Lakes Entrance,"26 Myer street, Lakes Entrance, VIC",Lakes Entrance,"Lakes Entrance, Lakes Entrance",147.9942247,-37.8783865,"Breakfast, Coffee and Tea",7,Dollar($),No,No,No,No,1,3.8,Yellow,Good,97
17557488,Burger Queen Drive In,216,Lakeview,"109 S F St, Lakeview, OR 97630",Lakeview,"Lakeview, Lakeview",-120.3458,42.1885,"Burger, Desserts, Sandwich",10,Dollar($),No,No,No,No,1,3.6,Yellow,Good,41
17452342,Blue Orchid Thai Restaurant,216,Lincoln,"129 N 10th St, Lincoln, NE 68508",Haymarket,"Haymarket, Lincoln",-96.7072,40.8143,Thai,25,Dollar($),No,No,No,No,2,4.5,Dark Green,Excellent,799
16611498,Stillwater on Belmore,14,Lorn,"27 Belmore Rd,, Lorn, NSW",Lorn,"Lorn, Lorn",151.558475,-32.728097,"Breakfast, Coffee and Tea",20,Dollar($),No,No,No,No,2,3.6,Yellow,Good,18
17842104,Mr.,14,Macedon,"23 Victoria St, Macedon, VIC",Macedon,"Macedon, Macedon",144.564174,-37.423189,Cafe,20,Dollar($),No,No,No,No,2,3.5,Yellow,Good,31
17501291,Emilio's Cuban Cafe,216,Macon,"402 Ga. Highway 247, Bonaire, GA 31005",Bonaire,"Bonaire, Macon",-83.594494,32.567741,"Coffee and Tea, Cuban, Latin American",25,Dollar($),No,No,No,No,2,3.9,Yellow,Good,146
17500759,Ingleside Village Pizza,216,Macon,"2395 Ingleside Ave, Macon, GA 31204",Macon,"Macon, Macon",-83.657061,32.853896,"Pizza, Sandwich",10,Dollar($),No,No,No,No,1,4.9,Dark Green,Excellent,478
17500767,Jim Shaw's Seafood Grill & Bar,216,Macon,"3040 Vineville Ave, Macon, GA 31204",Macon,"Macon, Macon",-83.6737,32.8496,Seafood,25,Dollar($),No,No,No,No,2,4.6,Dark Green,Excellent,467
17500819,Mandarin Chinese Restaurant,216,Macon,"3086 Riverside Dr, Macon, GA 31210",Macon,"Macon, Macon",-83.6766,32.8899,"Chinese, Thai",25,Dollar($),No,No,No,No,2,4.5,Dark Green,Excellent,302
17500911,Rookery,216,Macon,"543 Cherry St, Macon, GA 31201",Macon,"Macon, Macon",-83.6279,32.8361,"Burger, Desserts, Bar Food",25,Dollar($),No,No,No,No,2,4.5,Dark Green,Excellent,289
17501439,Dovetail,216,Macon,"543 Cherry St, Macon, GA 31201",Macon,"Macon, Macon",-83.627979,32.83641,,40,Dollar($),No,No,No,No,3,3.8,Yellow,Good,102
17501279,Bonefish Grill,216,Macon,"5080 Riverside Dr, Macon, GA 31210",Macon,"Macon, Macon",-83.713978,32.929278,"American, Seafood",40,Dollar($),No,No,No,No,3,4.1,Green,Very Good,293
17500695,Downtown Grill,216,Macon,"562 Mulberry St, Macon, GA 31201",Macon,"Macon, Macon",-83.6276,32.8375,Steak,70,Dollar($),No,No,No,No,4,4,Green,Very Good,195
17501298,Greek Corner Deli,216,Macon,"587 Cherry St, Macon, GA 31201",Macon,"Macon, Macon",-83.628703,32.83654,"Desserts, Greek, Sandwich",10,Dollar($),No,No,No,No,1,4.3,Green,Very Good,244
17500847,Natalia's,216,Macon,"201 North Macon St., Macon, GA 31210",Macon,"Macon, Macon",-83.787993,32.928495,"European, Italian, Mediterranean",70,Dollar($),No,No,No,No,4,4.2,Green,Very Good,379
17500872,Papouli's Mediterranean Cafe & Market,216,Macon,"121 Tom Hill Sr Blvd, Macon, GA 31210",Macon,"Macon, Macon",-83.6873,32.901,"Greek, Mediterranean, Vegetarian",10,Dollar($),No,No,No,No,1,4.2,Green,Very Good,223
17501315,Benson's Steak and Sushi,216,Macon,"1289 S Houston Lake Rd, Warner Robins, GA 31088",Warner Robins,"Warner Robins, Macon",-83.662421,32.556873,"American, Chinese, Sushi",25,Dollar($),No,No,No,No,2,3.7,Yellow,Good,243
17501201,My Fathers Place,216,Macon,"2507 Moody Rd, Warner Robins, GA 31088",Warner Robins,"Warner Robins, Macon",-83.624,32.5786,Italian,25,Dollar($),No,No,No,No,2,3.7,Yellow,Good,104
17501247,Sushi Thai Restaurant,216,Macon,"2624 Watson Blvd Ste D, Warner Robins, GA 31093",Warner Robins,"Warner Robins, Macon",-83.6665,32.6184,"Japanese, Sushi, Thai",10,Dollar($),No,No,No,No,1,3.7,Yellow,Good,153
17501281,The Mellow Mushroom,216,Macon,"710 Lake Joy Road, Warner Robins, GA 31088",Warner Robins,"Warner Robins, Macon",-83.691044,32.552684,"Pizza, Sandwich, Vegetarian",25,Dollar($),No,No,No,No,2,3.8,Yellow,Good,323
17501143,El Jalisciense Mexican Restaurant,216,Macon,"1224 Russell Pkwy, Warner Robins, GA 31088",Warner Robins,"Warner Robins, Macon",-83.64935,32.594666,Mexican,10,Dollar($),No,No,No,No,1,4.1,Green,Very Good,181
17501292,Greek Village,216,Macon,"1801 Watson Blvd, Warner Robins, GA 31093",Warner Robins,"Warner Robins, Macon",-83.636618,32.6176839,"American, Greek, Seafood",25,Dollar($),No,No,No,No,2,4,Green,Very Good,316
17501308,Martin's BBQ,216,Macon,"102 S Armed Forces Boulevard, Warner Robins, GA 31088",Warner Robins,"Warner Robins, Macon",-83.600201,32.619321,BBQ,25,Dollar($),No,No,No,No,2,4.2,Green,Very Good,288
17501301,Thai Pepper,216,Macon,"1806 Russell Parkway, Warner Robins, GA 31088",Warner Robins,"Warner Robins, Macon",-83.665557,32.593264,"Japanese, Sushi, Thai",10,Dollar($),No,No,No,No,1,4,Green,Very Good,232
17501268,Zen Japanese Steakhouse and Sushi Bar,216,Macon,"4086 Watson Blvd, Warner Robins, GA 31093",Warner Robins,"Warner Robins, Macon",-83.7184,32.6147,"Japanese, Steak, Sushi",40,Dollar($),No,No,No,No,3,4.1,Green,Very Good,314
16611701,Star Buffet,14,Mayfield,"58 Hanbury St, Mayfield, NSW",Mayfield,"Mayfield, Mayfield",151.7343832,-32.899178,Asian,20,Dollar($),No,No,No,No,2,2.9,Orange,Average,11
17482142,Triangle Restaurant,216,Mc Millan,"21053 State Hwy M28, Mc Millan, MI 49853",Mc Millan,"Mc Millan, Mc Millan",-85.7363,46.3718,"Breakfast, Burger",10,Dollar($),No,No,No,No,1,2.4,Red,Poor,17
16609169,Three Anchors,14,Middleton Beach,"2 Flinders Pde, Middleton Beach, WA",Middleton Beach,"Middleton Beach, Middleton Beach",117.917166,-35.025861,"Bar Food, Modern Australian",30,Dollar($),No,No,No,No,3,3.8,Yellow,Good,176
17606621,HI Lite Bar & Lounge,216,Miller,"109 N Broadway Ave, Miller, SD 57362",Miller,"Miller, Miller",-98.9891,44.5158,,0,Dollar($),No,No,No,No,1,3.4,Orange,Average,11
17687832,Vince's Restaurant & Pizzeria,216,Monroe,"619 4th Ave, Monroe, WI 53566",Monroe,"Monroe, Monroe",-89.653487,42.606306,"Italian, Pizza",25,Dollar($),No,No,No,No,2,3.6,Yellow,Good,65
16613059,Poets Cafe,14,Montville,"167 Main St, Montville, QLD",Montville,"Montville, Montville",152.893735,-26.690462,"Coffee and Tea, Modern Australian",30,Dollar($),No,No,No,No,3,2.4,Red,Poor,193
17534788,The Artesian Restaurant,216,Ojo Caliente,"Ojo Caliente Mineral Springs Resort And Spa 50 Los Banos Rd, Ojo Caliente, NM 87549",Ojo Caliente,"Ojo Caliente, Ojo Caliente",-106.057666,36.313638,"American, International, Southwestern",40,Dollar($),No,No,No,No,3,3.6,Yellow,Good,30
17061237,CevÌ_che Tapas Bar & Restaurant,216,Orlando,"125 West Church Street, Orlando, FL 32801",Church Street District,"Church Street District, Orlando",-81.381077,28.540432,"Spanish, Tapas",40,Dollar($),No,No,No,No,3,4.4,Green,Very Good,981
17057397,'Ohana,216,Orlando,"1600 Seven Seas Drive, Lake Buena Vista, FL 32830",Disney World Area,"Disney World Area, Orlando",-81.585226,28.405437,Hawaiian,45,Dollar($),No,No,No,No,3,4.5,Dark Green,Excellent,1151
17058534,Earl of Sandwich,216,Orlando,"1750 E Buena Vista Drive, Lake Buena Vista, FL 32830",Disney: Downtown Disney,"Disney: Downtown Disney, Orlando",-81.514608,28.372858,"American, Sandwich, Salad",35,Dollar($),No,No,No,No,3,4.7,Dark Green,Excellent,1341
17060320,Raglan Road Irish Pub and Restaurant,216,Orlando,"1640 E Buena Vista Drive, Lake Buena Vista, FL 32830",Disney: Downtown Disney,"Disney: Downtown Disney, Orlando",-81.517725,28.371338,Irish,50,Dollar($),No,No,No,No,4,4.3,Green,Very Good,782
17057925,CafÌ© Tu Tu Tango,216,Orlando,"8625 International Drive, Orlando, FL 32819",I-Drive/Universal,"I-Drive/Universal, Orlando",-81.469986,28.440344,"New American, Tapas",40,Dollar($),No,No,No,No,3,4.6,Dark Green,Excellent,1293
17060869,Texas de Brazil,216,Orlando,"5259 International Drive, Orlando, FL 32819",I-Drive/Universal,"I-Drive/Universal, Orlando",-81.4510725,28.4676808,"Brazilian, Steak",100,Dollar($),No,No,No,No,4,4.6,Dark Green,Excellent,2324
17057591,Bahama Breeze Island Grille,216,Orlando,"8849 International Drive, Orlando, FL 32819",I-Drive/Universal,"I-Drive/Universal, Orlando",-81.471526,28.437065,Caribbean,45,Dollar($),No,No,No,No,3,4.3,Green,Very Good,910
17059541,Maggiano's Little Italy,216,Orlando,"9101 International Drive,Orlando, FL 32819",I-Drive/Universal,"I-Drive/Universal, Orlando",-81.471447,28.433235,Italian,50,Dollar($),No,No,No,No,4,4.4,Green,Very Good,886
17064266,Hawkers Asian Street Fare,216,Orlando,"1103 N Mills Avenue, Orlando, FL 32803",Mills 50,"Mills 50, Orlando",-81.364347,28.560505,"Asian, Thai",35,Dollar($),No,No,No,No,3,4.6,Dark Green,Excellent,1293
17064405,Tako Cheena by Pom Pom,216,Orlando,"932 North Mills Avenue, Orlando, FL 32803",Mills 50,"Mills 50, Orlando",-81.364547,28.557845,"Asian, Latin American, Vegetarian",10,Dollar($),No,No,No,No,1,4.4,Green,Very Good,570
17060516,Seasons 52 Fresh Grill,216,Orlando,"7700 West Sand Lake Road, Orlando, FL 32819",Restaurant Row,"Restaurant Row, Orlando",-81.487978,28.448175,American,60,Dollar($),No,No,No,No,4,4.4,Green,Very Good,1685
17059012,Hollerbach's Willow Tree CafÌ©,216,Orlando,"205 East 1st Street, Sanford, FL 32771",Sanford,"Sanford, Orlando",-81.266871,28.811653,German,40,Dollar($),No,No,No,No,3,4.8,Dark Green,Excellent,1699
17061296,Pom Pom's Teahouse and Sandwicheria,216,Orlando,"67 North Bumby Avenue, Orlando, FL 32803",The Milk District,"The Milk District, Orlando",-81.351467,28.543571,"American, Sandwich, Tea",25,Dollar($),No,No,No,No,2,4.9,Dark Green,Excellent,1457
17061205,Yellow Dog Eats,216,Orlando,"1236 Hempel Avenue,Gotha, FL 34786",Windermere,"Windermere, Orlando",-81.522987,28.527592,"American, BBQ, Sandwich",35,Dollar($),No,No,No,No,3,4.9,Dark Green,Excellent,1252
17064031,Tibby's New Orleans Kitchen,216,Orlando,"2203 Aloma Avenue, Winter Park, FL 32792",Winter Park,"Winter Park, Orlando",-81.322631,28.601088,Cajun,25,Dollar($),No,No,No,No,2,4.7,Dark Green,Excellent,1412
17066603,The Coop,216,Orlando,"610 W Morse Boulevard, Winter Park, FL 32789",Winter Park,"Winter Park, Orlando",-81.357219,28.597366,"Southern, Cajun, Soul Food",25,Dollar($),No,No,No,No,2,3.6,Yellow,Good,432
17057797,Bosphorous Turkish Cuisine,216,Orlando,"108 S Park Ave, Winter Park, FL 32789",Winter Park,"Winter Park, Orlando",-81.3508344,28.5976271,"Mediterranean, Turkish",40,Dollar($),No,No,No,No,3,4.2,Green,Very Good,568
17061253,Ethos Vegan Kitchen,216,Orlando,"601-B South New York Avenue, Winter Park, FL 32789",Winter Park,"Winter Park, Orlando",-81.352921,28.592857,"American, Breakfast, Vegetarian",25,Dollar($),No,No,No,No,2,4.4,Green,Very Good,797
17059060,Hillstone,216,Orlando,"215 South Orlando Avenue, Winter Park, FL 32789",Winter Park,"Winter Park, Orlando",-81.36526,28.596682,,40,Dollar($),No,No,No,No,3,4.4,Green,Very Good,1158
17061231,The Ravenous Pig,216,Orlando,"565 W Fairbanks Avenue, Winter Park, FL 32789",Winter Park,"Winter Park, Orlando",-81.356024,28.593297,Pub Food,40,Dollar($),No,No,No,No,3,4.4,Green,Very Good,1998
16613649,Vivo Bar and Grill,14,Palm Cove,"49 Williams Esplanade, Palm Cove, QLD",Palm Cove,"Palm Cove, Palm Cove",145.670768,-16.748083,"Mediterranean, Seafood",30,Dollar($),No,No,No,No,3,4.4,Green,Very Good,381
18255631,Pier 70,14,Paynesville,"70 The Esplanade, Paynesville",Paynesville,"Paynesville, Paynesville",147.7227832,-37.9194154,Modern Australian,120,Dollar($),No,No,No,No,4,2.6,Orange,Average,16
16608483,DiVine,14,Penola,"39 Church St, Penola, SA",Penola,"Penola, Penola",140.837409,-37.379153,"Cafe, Coffee and Tea, Sandwich",20,Dollar($),No,No,No,No,2,3.4,Orange,Average,19
17580453,Cactus Flower Cafe Navarre,216,Pensacola,"8725 Ortega Park Dr, Navarre, FL 32566",Navarre,"Navarre, Pensacola",-86.8573393,30.4025979,"Mexican, Southwestern, Tex-Mex",25,Dollar($),No,No,No,No,2,4.2,Green,Very Good,635
17580142,McGuire's Irish Pub & Brewery,216,Pensacola,"600 E Gregory Street, Pensacola, FL 32502",Pensacola,"Pensacola, Pensacola",-87.2027,30.4179,"Burger, Bar Food, Steak",40,Dollar($),No,No,No,No,3,4.9,Dark Green,Excellent,2238
17580160,New Yorker Deli & Pizzeria,216,Pensacola,"3001 E Cervantes St, Pensacola, FL 32503",Pensacola,"Pensacola, Pensacola",-87.1819,30.4251,"Italian, Pizza, Sandwich",10,Dollar($),No,No,No,No,1,4.6,Dark Green,Excellent,792
17580349,Tu-Do Vietnamese Restaurant,216,Pensacola,"7130 N Davis Hwy, Pensacola, FL 32504",Pensacola,"Pensacola, Pensacola",-87.2216,30.4982,"Asian, Vietnamese",10,Dollar($),No,No,No,No,1,4.5,Dark Green,Excellent,828
17580412,Carrabba's Italian Grill,216,Pensacola,"311 N 9th Avenue, Pensacola, FL 32502",Pensacola,"Pensacola, Pensacola",-87.205855,30.417318,"Italian, Pizza, Seafood",40,Dollar($),No,No,No,No,3,3.7,Yellow,Good,292
17580590,Jaco's Bayfront Bar and Grille,216,Pensacola,"997 South Palafox, Pensacola, FL 32502",Pensacola,"Pensacola, Pensacola",-87.213274,30.403034,Tapas,25,Dollar($),No,No,No,No,2,3.9,Yellow,Good,502
17580704,The Tin Cow,216,Pensacola,"102 S Palafox Pl, Pensacola, FL",Pensacola,"Pensacola, Pensacola",-87.2150874,30.4116106,"Burger, Bar Food",25,Dollar($),No,No,No,No,2,3.7,Yellow,Good,559
17579928,Cactus Flower Cafe,216,Pensacola,"3425 N 12th Ave, Pensacola, FL 32503",Pensacola,"Pensacola, Pensacola",-87.2080932,30.4473322,"Latin American, Mexican, Southwestern",25,Dollar($),No,No,No,No,2,4.2,Green,Very Good,1268
17579992,Dharma Blue,216,Pensacola,"300 S Alcaniz Street, Pensacola, FL 32502",Pensacola,"Pensacola, Pensacola",-87.2092,30.4101,"Seafood, Sushi",40,Dollar($),No,No,No,No,3,4.1,Green,Very Good,669
17580030,Global Grill,216,Pensacola,"27 South Palafox Pl, Pensacola, FL 32501",Pensacola,"Pensacola, Pensacola",-87.2153054,30.411878,"European, International, Tapas",40,Dollar($),No,No,No,No,3,4.4,Green,Very Good,900
17580074,Ichiban,216,Pensacola,"5555 N Davis Hwy Ste I, Pensacola, FL 32503",Pensacola,"Pensacola, Pensacola",-87.2252,30.4767,"Japanese, Sushi",25,Dollar($),No,No,No,No,2,4.3,Green,Very Good,765
17580020,The Fish House,216,Pensacola,"600 S Barracks St, Pensacola, FL 32502",Pensacola,"Pensacola, Pensacola",-87.211082,30.407358,"American, Seafood, Sushi",40,Dollar($),No,No,No,No,3,4,Green,Very Good,1270
17580350,Tuscan Oven,216,Pensacola,"4801 N 9th Ave, Pensacola, FL 32503",Pensacola,"Pensacola, Pensacola",-87.214,30.4692,"Italian, Mediterranean, Pizza",25,Dollar($),No,No,No,No,2,4.1,Green,Very Good,502
17580408,Flounders Chowder House,216,Pensacola,"800 Quietwater Beach Rd, Pensacola Beach, FL 32561",Pensacola Beach,"Pensacola Beach, Pensacola",-87.143,30.3359,Seafood,40,Dollar($),No,No,No,No,3,3.9,Yellow,Good,724
17579653,Hemingway's Island Grill,216,Pensacola,"400 Quietwater Beach Rd, Pensacola Beach, FL 32561",Pensacola Beach,"Pensacola Beach, Pensacola",-87.142602,30.335521,"Caribbean, Seafood, Steak",40,Dollar($),No,No,No,No,3,3.5,Yellow,Good,479
17580476,Native Cafe,216,Pensacola,"45 A Via De Luna Dr, Pensacola Beach, FL 32561",Pensacola Beach,"Pensacola Beach, Pensacola",-87.132932,30.334776,"Breakfast, Burger",25,Dollar($),No,No,No,No,2,4.2,Green,Very Good,591
17580422,Peg Leg Pete's,216,Pensacola,"1010 Fort Pickens Rd, Pensacola Beach, FL 32561",Pensacola Beach,"Pensacola Beach, Pensacola",-87.164376,30.327864,"Burger, Sandwich, Seafood",40,Dollar($),No,No,No,No,3,4.4,Green,Very Good,1408
17580539,The Grand Marlin,216,Pensacola,"400 Pensacola Beach Boulevard, Pensacola Beach, FL 32561",Pensacola Beach,"Pensacola Beach, Pensacola",-87.149178,30.34262,"Caribbean, Seafood",40,Dollar($),No,No,No,No,3,4.3,Green,Very Good,905
17580511,Original Georgios Authentic Greek Food,216,Pensacola,"13310 Merilla Street, Pensacola, FL 32507",Perdido Key,"Perdido Key, Pensacola",-87.4218962,30.3199824,Greek,10,Dollar($),No,No,No,No,1,4.7,Dark Green,Excellent,816
17580021,Fisherman's Corner,216,Pensacola,"13486 Perdido Key Dr, Pensacola, FL 32507",Perdido Key,"Perdido Key, Pensacola",-87.427707,30.308468,"Sandwich, Seafood, Cajun",40,Dollar($),No,No,No,No,3,4.4,Green,Very Good,747
16604370,Mad Cowes Cafe,14,Phillip Island,"4/17 The Esplanade, Cowes, VIC",Phillip Island,"Phillip Island, Phillip Island",145.237813,-38.448307,"Breakfast, Coffee and Tea, Modern Australian",20,Dollar($),No,No,No,No,2,3.7,Yellow,Good,351
17582467,Rupes Burgers,216,Pocatello,"302 NE Main St, Blackfoot, ID 83221",Blackfoot,"Blackfoot, Pocatello",-112.3415,43.1903,"Burger, Fast Food",10,Dollar($),No,No,No,No,1,3.7,Yellow,Good,104
17582668,Texas Roadhouse,216,Pocatello,"560 Bullock Street, Pocatello, ID 83202",Chubbuck,"Chubbuck, Pocatello",-112.461326,42.910518,"American, BBQ, Steak",45,Dollar($),No,No,No,No,3,3.5,Yellow,Good,83
17582498,Riverwalk Cafe,216,Pocatello,"695 E Main St, Lava Hot Springs, ID 83246",Lava Hot Springs,"Lava Hot Springs, Pocatello",-112.0132,42.62,"Asian, Thai",10,Dollar($),No,No,No,No,1,3.6,Yellow,Good,91
17582499,Royal Hotel,216,Pocatello,"11 E Main St, Lava Hot Springs, ID 83246",Lava Hot Springs,"Lava Hot Springs, Pocatello",-112.0127,42.6192,"Pizza, Bar Food",0,Dollar($),No,No,No,No,1,3.6,Yellow,Good,59
17582522,Buddy's Italian Restaurant,216,Pocatello,"626 E Lewis St, Pocatello, ID 83201",Pocatello,"Pocatello, Pocatello",-112.4423,42.8661,"Italian, Pizza, Sandwich",40,Dollar($),No,No,No,No,3,3.7,Yellow,Good,222
17582524,Butterburrs,216,Pocatello,"917 Yellowstone Avenue, Pocatello, ID 83201",Pocatello,"Pocatello, Pocatello",-112.4516,42.8919,"American, Breakfast",30,Dollar($),No,No,No,No,3,3.6,Yellow,Good,121
17582527,Chang Garden,216,Pocatello,"1000 Pocatello Creek Rd Ste W2, Pocatello, ID 83201",Pocatello,"Pocatello, Pocatello",-112.441,42.8928,Chinese,10,Dollar($),No,No,No,No,1,3.5,Yellow,Good,93
17582551,Fifth Street Bagelry,216,Pocatello,"559 S 5TH Ave, Pocatello, ID 83201",Pocatello,"Pocatello, Pocatello",-112.4397,42.8631,"Coffee and Tea, Sandwich",10,Dollar($),No,No,No,No,1,3.8,Yellow,Good,136
17582558,Goody's Deli,216,Pocatello,"905 S 5th Ave, Pocatello, ID 83201",Pocatello,"Pocatello, Pocatello",-112.4365,42.8604,"Pizza, Sandwich",10,Dollar($),No,No,No,No,1,3.8,Yellow,Good,160
17582560,Grecian Key Restaurant,216,Pocatello,"314 N Main St, Pocatello, ID 83204",Pocatello,"Pocatello, Pocatello",-112.4524,42.8639,"American, Greek",25,Dollar($),No,No,No,No,2,3.7,Yellow,Good,152
17582677,Outer Limits Fun Zone,216,Pocatello,"1800 Garrett Way, Pocatello, ID 83201",Pocatello,"Pocatello, Pocatello",-112.459988,42.878077,"Burger, Pizza, Sandwich",10,Dollar($),No,No,No,No,1,3.5,Yellow,Good,57
17582670,Portneuf Valley Brewing,216,Pocatello,"615 South 1st Avenue, ID 83201",Pocatello,"Pocatello, Pocatello",-112.443213,42.860024,"American, Pizza",25,Dollar($),No,No,No,No,2,3.7,Yellow,Good,191
17582625,Sandpiper Restaurant & Lounge,216,Pocatello,"1400 Bench Rd, Pocatello, ID 83201",Pocatello,"Pocatello, Pocatello",-112.432,42.9012,"American, Seafood, Steak",40,Dollar($),No,No,No,No,3,3.6,Yellow,Good,85
17582627,Senor Iguanas,216,Pocatello,"961 Hiline Rd, Pocatello, ID 83201",Pocatello,"Pocatello, Pocatello",-112.4433,42.8942,Mexican,0,Dollar($),No,No,No,No,1,3.6,Yellow,Good,108
17582700,Sushi Family,216,Pocatello,"415 Yellowstone Ave, Pocatello, ID 83201",Pocatello,"Pocatello, Pocatello",-112.452013,42.88245,"Asian, Sushi, Vegetarian",25,Dollar($),No,No,No,No,2,3.6,Yellow,Good,132
17582664,Taste of India Nepal,216,Pocatello,"330 N Main Street, Pocatello, ID 83204",Pocatello,"Pocatello, Pocatello",-112.45253,42.863969,"Indian, International, Vegetarian",25,Dollar($),No,No,No,No,2,3.8,Yellow,Good,141
17582682,Thai Paradise,216,Pocatello,"140 S. Main, Pocatello, ID 83204",Pocatello,"Pocatello, Pocatello",-112.450106,42.861871,"Desserts, Thai",25,Dollar($),No,No,No,No,2,3.7,Yellow,Good,162
17582669,The Bridge,216,Pocatello,"815 S 1st Street, Pocatello, ID 83201",Pocatello,"Pocatello, Pocatello",-112.4413856,42.8585987,New American,40,Dollar($),No,No,No,No,3,3.6,Yellow,Good,144
18491935,Nosh Mahal,216,Pocatello,"303 E Alameda Road, ID 83201",Pocatello,"Pocatello, Pocatello",-112.44853,42.891174,"Indian, Persian",25,Dollar($),No,No,No,No,2,0,White,Not rated,1
17582546,El Herradero,216,Pocatello,"123 Jefferson Ave, Pocatello, ID 83201",Pocatello,"Pocatello, Pocatello",-112.4419,42.8774,Mexican,10,Dollar($),No,No,No,No,1,4.1,Green,Very Good,365
17629582,Barrett Junction Cafe,216,Potrero,"1020 Barrett Lake Rd, Dulzura, CA 91917",Potrero,"Potrero, Potrero",-116.704731,32.613431,"American, BBQ, Burger",25,Dollar($),No,No,No,No,2,3.3,Orange,Average,9
17211719,Blue Point Grill,216,Princeton,"258 Nassau St, Princeton, NJ 08542",Princeton,"Princeton, Princeton",-74.651139,40.352385,Seafood,70,Dollar($),No,No,No,No,4,4,Green,Very Good,542
17144717,Giovanni's Shrimp Truck,216,Rest of Hawaii,"56-505 Kamehameha Hwy, Kahuku, HI 96731",Kahuku,"Kahuku, Rest of Hawaii",-157.948486,21.677078,Seafood,25,Dollar($),No,No,No,No,2,4.5,Dark Green,Excellent,691
17143970,Kona Brewing Company,216,Rest of Hawaii,"75-5629 Kuakini Highway, Kailua Kona, HI 96740",Kailua Kona,"Kailua Kona, Rest of Hawaii",-155.997362,19.642752,"American, Pizza, Bar Food",35,Dollar($),No,No,No,No,3,4.7,Dark Green,Excellent,764
17142698,Leonard's Bakery,216,Rest of Hawaii,"933 Kapahulu Ave, Honolulu, HI 96816",Kaimuki,"Kaimuki, Rest of Hawaii",-157.813432,21.284586,,10,Dollar($),No,No,No,No,1,4.7,Dark Green,Excellent,707
17144991,Coconuts Fish Cafe,216,Rest of Hawaii,"1279 S Kihei Road, Kihei, HI 96753",Kihei,"Kihei, Rest of Hawaii",-156.455284,20.748838,Seafood,30,Dollar($),No,No,No,No,3,4.5,Dark Green,Excellent,487
17142519,Kihei Caffe,216,Rest of Hawaii,"1945 S Kihei Road, Kihei, HI 96753",Kihei,"Kihei, Rest of Hawaii",-156.451847,20.731487,"American, Hawaiian",10,Dollar($),No,No,No,No,1,4.5,Dark Green,Excellent,695
17145408,Monkeypod Kitchen by Merriman,216,Rest of Hawaii,"10 Wailea Gateway Place, Unit B-201 Kihei, Hawaii, HI 96753",Kihei,"Kihei, Rest of Hawaii",-156.4309473,20.6883746,Burger,40,Dollar($),No,No,No,No,3,4.2,Green,Very Good,485
17143336,Sansei Seafood Restaurant & Sushi Bar,216,Rest of Hawaii,"1881 S Kihei Rd, Kihei, HI 96753",Kihei,"Kihei, Rest of Hawaii",-156.452556,20.733554,"Japanese, Seafood, Sushi",40,Dollar($),No,No,No,No,3,4.2,Green,Very Good,807
17145077,Star Noodle,216,Rest of Hawaii,"286 Kupuohi St, Lahaina, HI 96761",Lahaina,"Lahaina, Rest of Hawaii",-156.674835,20.885226,Asian,10,Dollar($),No,No,No,No,1,4.6,Dark Green,Excellent,723
17141447,Aloha Mixed Plate,216,Rest of Hawaii,"1285 Front St, Lahaina, HI 96761",Lahaina,"Lahaina, Rest of Hawaii",-156.684967,20.886564,"Asian, Breakfast, Hawaiian",10,Dollar($),No,No,No,No,1,4.2,Green,Very Good,874
17142096,Gazebo,216,Rest of Hawaii,"5315 Lower Honoapiilani Rd, Lahaina, HI 96761",Lahaina,"Lahaina, Rest of Hawaii",-156.667037,20.992316,"Breakfast, Burger",25,Dollar($),No,No,No,No,2,4.4,Green,Very Good,552
17142297,Hula Grill,216,Rest of Hawaii,"2435 Kaanapali Pkwy, Lahaina, HI 96761",Lahaina,"Lahaina, Rest of Hawaii",-156.693821,20.921347,"Hawaiian, Seafood, Steak",40,Dollar($),No,No,No,No,3,4.3,Green,Very Good,1056
17142535,Kimo's,216,Rest of Hawaii,"845 Front St, Lahaina, HI 96761",Lahaina,"Lahaina, Rest of Hawaii",-156.680666,20.876127,"Hawaiian, Seafood, Steak",40,Dollar($),No,No,No,No,3,4.3,Green,Very Good,707
17142792,Mama's Fish House,216,Rest of Hawaii,"799 Poho Pl, Paia, HI 96779",Paia,"Paia, Rest of Hawaii",-156.366445,20.929622,"Hawaiian, Seafood",70,Dollar($),No,No,No,No,4,4.9,Dark Green,Excellent,1343
17145495,Marukame Udon,216,Rest of Hawaii,"2310 Kuhio Avenue, Honolulu, HI 96815",Waikiki,"Waikiki, Rest of Hawaii",-157.825979,21.279476,Japanese,10,Dollar($),No,No,No,No,1,4.9,Dark Green,Excellent,602
17143950,Yard House,216,Rest of Hawaii,"226 Lewers St, Honolulu, HI 96815",Waikiki,"Waikiki, Rest of Hawaii",-157.8312476,21.2794952,"American, Asian, Burger",40,Dollar($),No,No,No,No,3,4.6,Dark Green,Excellent,1078
17142747,Lulu's Waikiki,216,Rest of Hawaii,"2586 Kalakaua Ave, Honolulu, HI 96815",Waikiki,"Waikiki, Rest of Hawaii",-157.822716,21.271826,American,25,Dollar($),No,No,No,No,2,3.9,Yellow,Good,232
17141990,Duke's Waikiki,216,Rest of Hawaii,"2335 Kalakaua Ave, Honolulu, HI 96815",Waikiki,"Waikiki, Rest of Hawaii",-157.827196,21.277583,"Hawaiian, Seafood, Steak",70,Dollar($),No,No,No,No,4,4.4,Green,Very Good,1492
17144732,Eggs 'n Things,216,Rest of Hawaii,"343 Saratoga Road, Honolulu, HI 96815",Waikiki,"Waikiki, Rest of Hawaii",-157.831538,21.280663,Breakfast,10,Dollar($),No,No,No,No,1,4,Green,Very Good,535
17143282,Roy's,216,Rest of Hawaii,"226 Lewers St, Honolulu, HI 96815",Waikiki,"Waikiki, Rest of Hawaii",-157.831176,21.279154,"Asian, European, Seafood",70,Dollar($),No,No,No,No,4,4.2,Green,Very Good,531
17143705,Wailana Coffee House,216,Rest of Hawaii,"1860 Ala Moana Blvd, Honolulu, HI 96815",Waikiki,"Waikiki, Rest of Hawaii",-157.836031,21.285396,"American, Breakfast, Hawaiian",25,Dollar($),No,No,No,No,2,4.2,Green,Very Good,694
17615915,The Lady & Sons,216,Savannah,"102 W Congress St, Savannah, GA 31401",Savannah,"Savannah, Savannah",-81.0954,32.0804,Southern,40,Dollar($),No,No,No,No,3,3.3,Orange,Average,1201
17616487,Green Truck Pub,216,Savannah,"2430 Habersham Street, Savannah, GA 31401",Savannah,"Savannah, Savannah",-81.096647,32.052858,Burger,40,Dollar($),No,No,No,No,3,4.7,Dark Green,Excellent,906
17615924,Leopold's Ice Cream,216,Savannah,"212 E Broughton Street, Savannah, GA 31401",Savannah,"Savannah, Savannah",-81.0894,32.0785,"Desserts, Sandwich, Ice Cream",10,Dollar($),No,No,No,No,1,4.6,Dark Green,Excellent,880
17615979,Mrs. Wilkes' Dining Room,216,Savannah,"107 W Jones St, Savannah, GA 31401",Savannah,"Savannah, Savannah",-81.0955,32.0727,"American, Southern",40,Dollar($),No,No,No,No,3,4.5,Dark Green,Excellent,1014
17616266,Zunzi's,216,Savannah,"108 E York Street, Savannah, GA 31401",Savannah,"Savannah, Savannah",-81.0911,32.0775,"International, Mediterranean, Sandwich",25,Dollar($),No,No,No,No,2,4.5,Dark Green,Excellent,796
17615976,Moon River Brewing Company,216,Savannah,"21 W Bay St, Savannah, GA 31401",Savannah,"Savannah, Savannah",-81.0916,32.0809,"American, Bar Food, Sandwich",25,Dollar($),No,No,No,No,2,3.7,Yellow,Good,747
17616025,Pirates' House Restaurant,216,Savannah,"20 E Broad St, Savannah, GA 31401",Savannah,"Savannah, Savannah",-81.0844,32.0782,"American, Seafood, Steak",40,Dollar($),No,No,No,No,3,3.8,Yellow,Good,566
17615597,B. Matthew's Eatery,216,Savannah,"325 E Bay St, Savannah, GA 31401",Savannah,"Savannah, Savannah",-81.0875,32.0798,"American, Breakfast",25,Dollar($),No,No,No,No,2,4.1,Green,Very Good,683
17615740,Crystal Beer Parlor,216,Savannah,"301 W Jones St, Savannah, GA 31401",Savannah,"Savannah, Savannah",-81.0979,32.0735,"American, Bar Food",25,Dollar($),No,No,No,No,2,4.4,Green,Very Good,690
17616203,Goose Feathers Cafe and Bakery,216,Savannah,"39 Barnard St, Savannah, GA 31401",Savannah,"Savannah, Savannah",-81.0941,32.0801,"Breakfast, Vegetarian",10,Dollar($),No,No,No,No,1,4.2,Green,Very Good,680
17616590,Henry's,216,Savannah,"28 Drayton St, Savannah, GA 31401",Savannah,"Savannah, Savannah",-81.0905213,32.0794767,"American, Breakfast",10,Dollar($),No,No,No,No,1,4.1,Green,Very Good,287
17615855,Huey's On The River,216,Savannah,"115 E River St, Savannah, GA 31401",Savannah,"Savannah, Savannah",-81.0897,32.0812,"Breakfast, Cajun",40,Dollar($),No,No,No,No,3,4.1,Green,Very Good,802
17616348,J. Christopher's,216,Savannah,"122 E. Liberty, Savannah, GA 31401",Savannah,"Savannah, Savannah",-81.091482,32.074495,"Breakfast, Diner, Sandwich",25,Dollar($),No,No,No,No,2,4.3,Green,Very Good,710
17616368,Lulu's Chocolate Bar,216,Savannah,"42 MLK Jr. Blvd, Savannah, GA 31401",Savannah,"Savannah, Savannah",-81.097051,32.080742,"Coffee and Tea, Desserts",10,Dollar($),No,No,No,No,1,4.3,Green,Very Good,456
17616400,Rocks on the River,216,Savannah,"102 West Bay St., Savannah, GA 31401",Savannah,"Savannah, Savannah",-81.092484,32.081394,"Pizza, Seafood, Steak",70,Dollar($),No,No,No,No,4,4,Green,Very Good,687
17616076,SOHO South Cafe,216,Savannah,"12 W Liberty St, Savannah, GA 31401",Savannah,"Savannah, Savannah",-81.0939,32.0747,"Cafe, Sandwich, Southern",25,Dollar($),No,No,No,No,2,4.3,Green,Very Good,719
17616205,The Olde Pink House,216,Savannah,"23 Abercorn St, Savannah, GA 31401",Savannah,"Savannah, Savannah",-81.0897,32.0798,"American, Seafood, Southern",70,Dollar($),No,No,No,No,4,4.4,Green,Very Good,1803
17616222,Vic's On The River,216,Savannah,"26 E Bay St, Savannah, GA 31401",Savannah,"Savannah, Savannah",-81.0908,32.0809,American,70,Dollar($),No,No,No,No,4,4.1,Green,Very Good,558
17616295,The Crab Shack,216,Savannah,"40 Estill Hammock Rd, Tybee Island, GA 31328",Tybee Island,"Tybee Island, Savannah",-80.865909,32.011689,Seafood,40,Dollar($),No,No,No,No,3,3.8,Yellow,Good,883
17616465,Tybee Island Social Club,216,Savannah,"1311 Butler Ave, Tybee Island, GA 31328",Tybee Island,"Tybee Island, Savannah",-80.848297,31.99581,,10,Dollar($),No,No,No,No,1,3.9,Yellow,Good,309
18483372,Sky On 57,184,Singapore,"10 Bayfront Avenue, 57 Marina Bay Sands 018956","Bayfront Avenue, Downtown Core","Bayfront Avenue, Downtown Core, Singapore",103.8600048,1.2826608,"Chinese, Continental, Singaporean",300,Dollar($),No,No,No,No,4,3.4,Orange,Average,34
18484349,Cut By Wolfgang Puck,184,Singapore,"2 Bayfront Avenue, B1-71 Marina Bay Sands 018972","Bayfront Subzone, Downtown Core","Bayfront Subzone, Downtown Core, Singapore",103.8594222,1.285476931,"American, Steak",270,Dollar($),No,No,No,No,4,4,Green,Very Good,33
18496057,Restaurant Andre,184,Singapore,41 Bukit Pasoh Road 089855,"Cantonment Road, Outram","Cantonment Road, Outram, Singapore",103.8403602,1.279419756,"French, Mediterranean, European",500,Dollar($),No,No,No,No,4,3.8,Yellow,Good,33
18483389,Potato Head Folk,184,Singapore,36 Keong Saik Road 089143,"Chinatown, Outram","Chinatown, Outram, Singapore",103.8416688,1.280502991,American,80,Dollar($),No,No,No,No,4,3.1,Orange,Average,34
18483222,Jaan,184,Singapore,"2 Stamford Road, Level 70 Equinox Complex 178882","City Hall, Downtown Core","City Hall, Downtown Core, Singapore",103.8536048,1.293220698,French,430,Dollar($),No,No,No,No,4,3.8,Yellow,Good,35
18483085,Rhubarb Le Restaurant,184,Singapore,"3 Duxton Hill, Duxton 089589","Duxton Hill, Outram","Duxton Hill, Outram, Singapore",103.8430222,1.27944363,French,315,Dollar($),No,No,No,No,4,3.9,Yellow,Good,33
18484423,Al'frank Cookies,184,Singapore,12 Haji Lane 189205,"Haji Lane, Rochor","Haji Lane, Rochor, Singapore",103.859422,1.300404333,Bakery,20,Dollar($),No,No,No,No,2,4.2,Green,Very Good,29
18483714,Fratini La Trattoria,184,Singapore,"10 Greenwood Avenue, Hillcrest Park 289201","Hillcrest, Bukit Timah","Hillcrest, Bukit Timah, Singapore",103.8070809,1.331128397,Italian,100,Dollar($),No,No,No,No,4,4.1,Green,Very Good,35
